{
"type": "FeatureCollection",
"crs": { "type": "name", "properties": { "name": "urn:ogc:def:crs:OGC:1.3:CRS84" } },
"features": [
{ "type": "Feature", "properties": { "name": "Fabrica Argentina de Aviones 'Brig. San Martín' S.A.", "address": "AVE FUERZA AEREA 5500, CORDOBA, X5010JMN, ARGENTINA" }, "geometry": { "type": "Point", "coordinates": [ -64.26319, -31.43337 ] } },
{ "type": "Feature", "properties": { "name": "DC BARS RA LLC.", "address": "Abelyan street, building 6/13, office B410, Yerevan, 0038, ARMENIA" }, "geometry": { "type": "Point", "coordinates": [ 44.47751, 40.19906 ] } },
{ "type": "Feature", "properties": { "name": "ACoS GmbH - Advanced Components & Solutions GmbH", "address": "Dohlengasse 3, Kapfenberg, 8605, AUSTRIA" }, "geometry": { "type": "Point", "coordinates": [ 15.32454, 47.47493 ] } },
{ "type": "Feature", "properties": { "name": "ALPEX Technologies GmbH", "address": "Gewerbepark 30, Mils, 6068, AUSTRIA" }, "geometry": { "type": "Point", "coordinates": [ 11.54541, 47.28397 ] } },
{ "type": "Feature", "properties": { "name": "AMAG Austria Metall AG also trading as AMAG casting GmbH and AMAG rolling GmbH", "address": "Lamprechtshausener Str. 61, 5282, Ranshofen, AUSTRIA" }, "geometry": { "type": "Point", "coordinates": [ 13.03232, 48.22697 ] } },
{ "type": "Feature", "properties": { "name": "AMES Aerospace and Mechanical Engineering Services Ing. Walter Starzacher GesmbH", "address": "Grazer Straße 20a, Peggau, 8120, AUSTRIA" }, "geometry": { "type": "Point", "coordinates": [ 15.34499, 47.20368 ] } },
{ "type": "Feature", "properties": { "name": "AMTEQ GmbH", "address": "Untermühlberg 1, Frankenmarkt, 4890, AUSTRIA" }, "geometry": { "type": "Point", "coordinates": [ 13.44619, 47.99029 ] } },
{ "type": "Feature", "properties": { "name": "AT Industrieservice GmbH", "address": "Fuchsleiten 5, Tumeltsham, 4911, AUSTRIA" }, "geometry": { "type": "Point", "coordinates": [ 13.49463, 48.22013 ] } },
{ "type": "Feature", "properties": { "name": "AT&S Austria Technologie & Systemtechnik AG", "address": "Industriepark 4, Fehring, 8350, AUSTRIA" }, "geometry": { "type": "Point", "coordinates": [ 16.00765, 46.94258 ] } },
{ "type": "Feature", "properties": { "name": "Aalberts Surface  Technologies Ges.m.b.H.", "address": "Gewerbestraße 21, 5261 Helpfau-Uttendorf, /OÖ, AUSTRIA" }, "geometry": { "type": "Point", "coordinates": [ 13.12329, 48.16815 ] } },
{ "type": "Feature", "properties": { "name": "Alu Menziken Euromotive GmbH", "address": "Schloßstraße 26, 5282 Ranshofen,, AUSTRIA" }, "geometry": { "type": "Point", "coordinates": [ 13.02957, 48.23309 ] } },
{ "type": "Feature", "properties": { "name": "Antemo GmbH", "address": "3G Gewerbepark 6, St. Peter ob Judenburg , 8755, AUSTRIA" }, "geometry": { "type": "Point", "coordinates": [ 14.60086, 47.18383 ] } },
{ "type": "Feature", "properties": { "name": "Aviation Avionic Service GmbH", "address": "Glaserstraße 3, Alkoven, 4072, AUSTRIA" }, "geometry": { "type": "Point", "coordinates": [ 14.12394, 48.2896 ] } },
{ "type": "Feature", "properties": { "name": "Beyond Gravity Austria GmbH", "address": "Hermann-Gebauer-Straße 16, Vienna, 1220, AUSTRIA" }, "geometry": { "type": "Point", "coordinates": [ 16.4738, 48.2647 ] } },
{ "type": "Feature", "properties": { "name": "Bosch General Aviation Technology GmbH", "address": "Göllnergasse 15-17, Wien, A-1030, AUSTRIA" }, "geometry": { "type": "Point", "coordinates": [ 16.39972, 48.20076 ] } },
{ "type": "Feature", "properties": { "name": "Breitenfeld Edelstahl AG", "address": "Breitenfeldstraße 22, St. Barbara im Mürztal, 8662, AUSTRIA" }, "geometry": { "type": "Point", "coordinates": [ 15.5029, 47.53443 ] } },
{ "type": "Feature", "properties": { "name": "CoLT Prüf und Test GmbH", "address": "Breitenaich 52, St. Martin im Innkreis, --- 4973, AUSTRIA" }, "geometry": { "type": "Point", "coordinates": [ 13.42814, 48.30254 ] } },
{ "type": "Feature", "properties": { "name": "E-P-C Ebetsberger Partner CNC GmbH", "address": "Straß im Attergau 50, Straß im Attergau, 4881, AUSTRIA" }, "geometry": { "type": "Point", "coordinates": [ 13.45871, 47.91715 ] } },
{ "type": "Feature", "properties": { "name": "Electrovac Metall-Glaseinschmelzungs GmbH", "address": "Aufeldgasse 37-39, Klosterneuburg, 3400, AUSTRIA" }, "geometry": { "type": "Point", "coordinates": [ 16.33704, 48.2955 ] } },
{ "type": "Feature", "properties": { "name": "Evonik Fibres GmbH", "address": "Gewerbepark 4, Schörfling am Attersee, 4861, AUSTRIA" }, "geometry": { "type": "Point", "coordinates": [ 13.61554, 47.95241 ] } },
{ "type": "Feature", "properties": { "name": "F.LIST GMBH", "address": "List-Strasse 1, Thomasberg, 2842, AUSTRIA" }, "geometry": { "type": "Point", "coordinates": [ 16.12139, 47.6005 ] } },
{ "type": "Feature", "properties": { "name": "FACC Operations GmbH", "address": "Fischerstrasse 9, RIED, 4910, AUSTRIA" }, "geometry": { "type": "Point", "coordinates": [ 13.47183, 48.19975 ] } },
{ "type": "Feature", "properties": { "name": "Faschang Werkzeugbau GmbH", "address": "Pirath 12, Weng im Innkreis, 4952, AUSTRIA" }, "geometry": { "type": "Point", "coordinates": [ 13.21025, 48.2488 ] } },
{ "type": "Feature", "properties": { "name": "GMT Gummi-Metall-Technik GmbH", "address": "Teufligen 4, Neukirchen an der Vöckla, A4872, AUSTRIA" }, "geometry": { "type": "Point", "coordinates": [ 13.54773, 48.06125 ] } },
{ "type": "Feature", "properties": { "name": "HELDECO CAD/CAM Fertigungstechnik GmbH", "address": "Döllach 50, Aflenz, 8624, AUSTRIA" }, "geometry": { "type": "Point", "coordinates": [ 15.30963, 47.54675 ] } },
{ "type": "Feature", "properties": { "name": "HT Solutions GmbH", "address": "Kaltschmidstrasse 5, Bruck an der Mur, 8600, AUSTRIA" }, "geometry": { "type": "Point", "coordinates": [ 15.25178, 47.42532 ] } },
{ "type": "Feature", "properties": { "name": "Haumberger Fertigungstechnik GmbH", "address": "Burgstallbergstraße 50, Judenau, 3441, AUSTRIA" }, "geometry": { "type": "Point", "coordinates": [ 16.00005, 48.28005 ] } },
{ "type": "Feature", "properties": { "name": "Heinz Ehgartner GmbH", "address": "Brandberggasse 1, Leoben, 8700, AUSTRIA" }, "geometry": { "type": "Point", "coordinates": [ 15.04985, 47.38518 ] } },
{ "type": "Feature", "properties": { "name": "Hilitech GmbH", "address": "Langenfeldgasse 11, Kindberg, 8650, AUSTRIA" }, "geometry": { "type": "Point", "coordinates": [ 15.45582, 47.50923 ] } },
{ "type": "Feature", "properties": { "name": "INTALES GmbH", "address": "Innsbrucker Straße 1, Natters, 6161, AUSTRIA" }, "geometry": { "type": "Point", "coordinates": [ 11.37516, 47.23418 ] } },
{ "type": "Feature", "properties": { "name": "ISOVOLTA AG", "address": "Straße 3 IZ-NÖ Süd, Wiener Neudorf, 2355, AUSTRIA" }, "geometry": { "type": "Point", "coordinates": [ 16.32485, 48.07439 ] } },
{ "type": "Feature", "properties": { "name": "Intact Demo Site 1", "address": "Demostreet 2, Graz, AUSTRIA" }, "geometry": { "type": "Point", "coordinates": [ 15.44173, 47.0679 ] } },
{ "type": "Feature", "properties": { "name": "Jabil Circuit Austria GmbH", "address": "Gutheil-Schoder-Gasse 17, Vienna, 1230, AUSTRIA" }, "geometry": { "type": "Point", "coordinates": [ 16.33377, 48.15703 ] } },
{ "type": "Feature", "properties": { "name": "KRENHOF GmbH", "address": "Industriestraße West 2, Kapfenberg, 8605, AUSTRIA" }, "geometry": { "type": "Point", "coordinates": [ 15.34052, 47.4578 ] } },
{ "type": "Feature", "properties": { "name": "KTS Peter Sporrer Handelsagentur für Kabeltechnik Gesellschaft m. b.H.", "address": "Jenschke - Straße 1, Kottingbrunn, 2542, AUSTRIA" }, "geometry": { "type": "Point", "coordinates": [ 16.25365, 47.95958 ] } },
{ "type": "Feature", "properties": { "name": "Lufthansa Technik Logistik Services GmbH", "address": "Technical Base, Building 983, Vienna Airport, 1300, AUSTRIA" }, "geometry": { "type": "Point", "coordinates": [ 16.56626, 48.11795 ] } },
{ "type": "Feature", "properties": { "name": "MAGNA STEYR Fahrzeugtechnik GmbH & Co. KG", "address": "Puchstrasse 85, GRAZ, 8020, AUSTRIA" }, "geometry": { "type": "Point", "coordinates": [ 15.43758, 47.04398 ] } },
{ "type": "Feature", "properties": { "name": "MCE GmbH", "address": "Franzosenhausweg 25, Linz, 4030, AUSTRIA" }, "geometry": { "type": "Point", "coordinates": [ 14.29621, 48.24704 ] } },
{ "type": "Feature", "properties": { "name": "Maschinenbau Koller Ges.m.b.H.", "address": "Seebach 74, Aflenz, 8624, AUSTRIA" }, "geometry": { "type": "Point", "coordinates": [ 15.31355, 47.551 ] } },
{ "type": "Feature", "properties": { "name": "Metalpine GmbH", "address": "Parkring 3, Niklasdorf, 8712, AUSTRIA" }, "geometry": { "type": "Point", "coordinates": [ 15.13514, 47.38941 ] } },
{ "type": "Feature", "properties": { "name": "Miba Gleitlager Austria GmbH", "address": "Dr.-Mitterbauer-Str. 3, Laakirchen, 4663, AUSTRIA" }, "geometry": { "type": "Point", "coordinates": [ 13.82287, 47.98152 ] } },
{ "type": "Feature", "properties": { "name": "Milltech GmbH", "address": "Gewerbestrasse 6, St.Marienkirchen, 4774, AUSTRIA" }, "geometry": { "type": "Point", "coordinates": [ 13.44419, 48.38942 ] } },
{ "type": "Feature", "properties": { "name": "Mubea Carbo Tech GmbH", "address": "Eugen-Müller-Straße 16, Salzburg, 5020, AUSTRIA" }, "geometry": { "type": "Point", "coordinates": [ 13.00477, 47.83256 ] } },
{ "type": "Feature", "properties": { "name": "NEVEON Austria GmbH", "address": "Greinerstraße 70, Kremsmünster, Oberösterreich 4550, AUSTRIA" }, "geometry": { "type": "Point", "coordinates": [ 14.12051, 48.03632 ] } },
{ "type": "Feature", "properties": { "name": "PIDSO Propagation Ideas & Solutions GmbH", "address": "Wallackgasse 2, Vienna, 1230, AUSTRIA" }, "geometry": { "type": "Point", "coordinates": [ 16.31553, 48.13447 ] } },
{ "type": "Feature", "properties": { "name": "PRIME aerostructures GmbH", "address": "Plöcking 1, Klosterneuburg, 3400, AUSTRIA" }, "geometry": { "type": "Point", "coordinates": [ 16.25685, 48.30868 ] } },
{ "type": "Feature", "properties": { "name": "Pankl Aerospace Systems Europe GmbH", "address": "Industriestraße West 4, Kapfenberg, 8605, AUSTRIA" }, "geometry": { "type": "Point", "coordinates": [ 15.34118, 47.45674 ] } },
{ "type": "Feature", "properties": { "name": "Peak Technology GmbH", "address": "Technologiepark Strasse 6, Holzhausen, 4615, AUSTRIA" }, "geometry": { "type": "Point", "coordinates": [ 14.08791, 48.20888 ] } },
{ "type": "Feature", "properties": { "name": "Pichler & Strobl GmbH", "address": "Landstraße 20, Anthering, 5102, AUSTRIA" }, "geometry": { "type": "Point", "coordinates": [ 13.01504, 47.87023 ] } },
{ "type": "Feature", "properties": { "name": "Progresys Management & Engineering GmbH", "address": "Wiesenstraße 20, Wels, 4600, AUSTRIA" }, "geometry": { "type": "Point", "coordinates": [ 14.03462, 48.16041 ] } },
{ "type": "Feature", "properties": { "name": "RO-RA Aviation Systems GmbH", "address": "Gewerbepark 8, Schörfling am Attersee, 4861, AUSTRIA" }, "geometry": { "type": "Point", "coordinates": [ 13.6172, 47.95418 ] } },
{ "type": "Feature", "properties": { "name": "Rübig GmbH & Co.KG", "address": "Griesmühlstraße 4 + 10, Wels, 4600, AUSTRIA" }, "geometry": { "type": "Point", "coordinates": [ 14.07756, 48.18327 ] } },
{ "type": "Feature", "properties": { "name": "SCHOELLER-BLECKMANN OILFIELD TECHNOLOGY GmbH", "address": "Hauptstraße 2, Ternitz, 2630, AUSTRIA" }, "geometry": { "type": "Point", "coordinates": [ 16.03559, 47.71447 ] } },
{ "type": "Feature", "properties": { "name": "SECAR Technologie GmbH", "address": "Industriepark 14, Mürzzuschlag-Hönigsberg, A8682, AUSTRIA" }, "geometry": { "type": "Point", "coordinates": [ 15.65103, 47.58512 ] } },
{ "type": "Feature", "properties": { "name": "SWACRIT systems GmbH", "address": "Alte Landstrasse 27, Hall in Tirol, 6060, AUSTRIA" }, "geometry": { "type": "Point", "coordinates": [ 11.48973, 47.28015 ] } },
{ "type": "Feature", "properties": { "name": "Schiebel Aircraft GmbH", "address": "112, Margaretenstraße, Wien, 1050, AUSTRIA" }, "geometry": { "type": "Point", "coordinates": [ 16.35408, 48.18883 ] } },
{ "type": "Feature", "properties": { "name": "Scotty Group Austria GmbH", "address": "Teslastraße 4, Raaba-Grambach, 8074, AUSTRIA" }, "geometry": { "type": "Point", "coordinates": [ 15.50032, 47.01867 ] } },
{ "type": "Feature", "properties": { "name": "Spring Components GmbH", "address": "Hauptstraße 22, Mariazell, 8632, AUSTRIA" }, "geometry": { "type": "Point", "coordinates": [ 15.3066, 47.74239 ] } },
{ "type": "Feature", "properties": { "name": "Steel Trading & Technology GmbH", "address": "Bundes Strasse 7, St. Barbara im Mürztal, 8661, AUSTRIA" }, "geometry": { "type": "Point", "coordinates": [ 15.49882, 47.52825 ] } },
{ "type": "Feature", "properties": { "name": "TEST-FUCHS Aerospace Systems GmbH", "address": "Test-Fuchs-Straße 1-5, Groß-Siegharts, 3812, AUSTRIA" }, "geometry": { "type": "Point", "coordinates": [ 15.40941, 48.79598 ] } },
{ "type": "Feature", "properties": { "name": "TIZ Landl - Grieskirchen GmbH", "address": "Industriestrasse 28, Grieskirchen, 4710, AUSTRIA" }, "geometry": { "type": "Point", "coordinates": [ 13.84195, 48.2275 ] } },
{ "type": "Feature", "properties": { "name": "TMS Turnkey Manufacturing Solutions GmbH", "address": "Gaisbergerstrasse 50, Linz, 4031, AUSTRIA" }, "geometry": { "type": "Point", "coordinates": [ 14.32807, 48.26585 ] } },
{ "type": "Feature", "properties": { "name": "TTTech Computertechnik AG", "address": "Kettenbrueckengasse 16, Vienna, 1040, AUSTRIA" }, "geometry": { "type": "Point", "coordinates": [ 16.3604, 48.19563 ] } },
{ "type": "Feature", "properties": { "name": "Treibacher Industrie AG", "address": "Auer von Welsbach Str.1, Althofen, 9330, AUSTRIA" }, "geometry": { "type": "Point", "coordinates": [ 14.46227, 46.86901 ] } },
{ "type": "Feature", "properties": { "name": "VENTANA Foundry Kapfenberg Ges.m.b.H.", "address": "Werk-VI-Straße 56, Kapfenberg, 8605, AUSTRIA" }, "geometry": { "type": "Point", "coordinates": [ 15.33541, 47.45403 ] } },
{ "type": "Feature", "properties": { "name": "Wieland Austria Ges.m.b.H.", "address": "Fabrikstraße 4, Amstetten, 3300, AUSTRIA" }, "geometry": { "type": "Point", "coordinates": [ 14.89217, 48.11953 ] } },
{ "type": "Feature", "properties": { "name": "Wollsdorf Leder Schmidt & Co Ges.m.b.H.", "address": "Floecking 2, Ludersdorf-Wilfersdorf, 8200, AUSTRIA" }, "geometry": { "type": "Point", "coordinates": [ 15.66761, 47.10134 ] } },
{ "type": "Feature", "properties": { "name": "ZOERKLER GEARS GmbH & Co KG", "address": "Friedrich Zoerkler Strasse 1, Jois, 7093, AUSTRIA" }, "geometry": { "type": "Point", "coordinates": [ 16.79976, 47.96535 ] } },
{ "type": "Feature", "properties": { "name": "technosert electronic GmbH", "address": "Angererweg 7, Wartberg ob der Aist, 4224, AUSTRIA" }, "geometry": { "type": "Point", "coordinates": [ 14.51815, 48.35579 ] } },
{ "type": "Feature", "properties": { "name": "voestalpine BÖHLER Aerospace GmbH & Co KG", "address": "Mariazeller Straße 25, Kapfenberg, 8605, AUSTRIA" }, "geometry": { "type": "Point", "coordinates": [ 15.2829, 47.44535 ] } },
{ "type": "Feature", "properties": { "name": "3D Systems Inc", "address": "Grauwmeer 14, Leuven, 3001, BELGIUM" }, "geometry": { "type": "Point", "coordinates": [ 4.72199, 50.84561 ] } },
{ "type": "Feature", "properties": { "name": "ACB nv", "address": "Vosmeer 3, Dendermonde, 9200, BELGIUM" }, "geometry": { "type": "Point", "coordinates": [ 4.13526, 51.03025 ] } },
{ "type": "Feature", "properties": { "name": "ACTC - Aero Consulting & Trading Company", "address": "Priorijstraat 12,  , Lievegem (Waarschoot), 9950, BELGIUM" }, "geometry": { "type": "Point", "coordinates": [ 3.61043, 51.15896 ] } },
{ "type": "Feature", "properties": { "name": "ADVANCED COATING SA", "address": "Rue de l'Avouerie 7, LIEGE, 4000, BELGIUM" }, "geometry": { "type": "Point", "coordinates": [ 5.55081, 50.61121 ] } },
{ "type": "Feature", "properties": { "name": "AKKODIS BELGIUM SA", "address": "Noordkustlaan 16b, DILBEEK, 1702, BELGIUM" }, "geometry": { "type": "Point", "coordinates": [ 4.27998, 50.8768 ] } },
{ "type": "Feature", "properties": { "name": "AMI Metals Europe SPRL", "address": "Rue Louis Bleriot 23, 6041 Gosselies, BELGIUM" }, "geometry": { "type": "Point", "coordinates": [ 4.4651, 50.47542 ] } },
{ "type": "Feature", "properties": { "name": "ANTWERP SPACE N.V", "address": "Interleuvenlaan 15G, 3001 Leuven, BELGIUM" }, "geometry": { "type": "Point", "coordinates": [ 4.7317, 50.84788 ] } },
{ "type": "Feature", "properties": { "name": "ANY-SHAPE", "address": "Rue des Technologies 1 , VILLERS-LE-BOUILLET, 4530 , BELGIUM" }, "geometry": { "type": "Point", "coordinates": [ 5.26154, 50.58314 ] } },
{ "type": "Feature", "properties": { "name": "ASCO Industries", "address": "Weiveldlaan 2, ZAVENTEM, 1930, BELGIUM" }, "geometry": { "type": "Point", "coordinates": [ 4.48589, 50.87115 ] } },
{ "type": "Feature", "properties": { "name": "Advionics nv", "address": "Siemenslaan 16, Oostkamp, 8020, BELGIUM" }, "geometry": { "type": "Point", "coordinates": [ 3.24116, 51.14748 ] } },
{ "type": "Feature", "properties": { "name": "Antwerp Space NV", "address": "Berkenrodelei 33, Antwerp, 2660, BELGIUM" }, "geometry": { "type": "Point", "coordinates": [ 4.34903, 51.17874 ] } },
{ "type": "Feature", "properties": { "name": "Avnet Logistics BVBA", "address": "Limesweg 4, Tongeren, Flemish Brabant,, B-3700, BELGIUM" }, "geometry": { "type": "Point", "coordinates": [ 5.52457, 50.78849 ] } },
{ "type": "Feature", "properties": { "name": "BMT AEROSPACE INTERNATIONAL N.V. - BMT EURAIR N.V.", "address": "Handelsstraat 6, OOSTKAMP, 8020, BELGIUM" }, "geometry": { "type": "Point", "coordinates": [ 3.25262, 51.12678 ] } },
{ "type": "Feature", "properties": { "name": "Bodycote Hot Isostatic Pressing N.V.", "address": "Industriepark-Noord 7, Sint Niklaas, B-9100, BELGIUM" }, "geometry": { "type": "Point", "coordinates": [ 4.17075, 51.14798 ] } },
{ "type": "Feature", "properties": { "name": "Bridgestone Aircraft Tire (Europe), S.A.", "address": "Route de Bavay, Frameries, 7080, BELGIUM" }, "geometry": { "type": "Point", "coordinates": [ 3.9143, 50.39572 ] } },
{ "type": "Feature", "properties": { "name": "C-MAC ELECTROMAG B.V.B.A.", "address": "Industriëlestraat 4, Ronse, 9600, BELGIUM" }, "geometry": { "type": "Point", "coordinates": [ 3.64622, 50.75228 ] } },
{ "type": "Feature", "properties": { "name": "CAPAUL AG", "address": "Industriestrasse 39, EUPEN, B4700, BELGIUM" }, "geometry": { "type": "Point", "coordinates": [ 6.00561, 50.63741 ] } },
{ "type": "Feature", "properties": { "name": "CASTINGPAR-PRECIMETAL", "address": "Chaussée de Mons 89, Seneffe, 7180, BELGIUM" }, "geometry": { "type": "Point", "coordinates": [ 4.25105, 50.51973 ] } },
{ "type": "Feature", "properties": { "name": "CASTINGPAR-SETTAS", "address": "ZI, Allée centrale 39-41, Charleroi, 6040, BELGIUM" }, "geometry": { "type": "Point", "coordinates": [ 4.45755, 50.45185 ] } },
{ "type": "Feature", "properties": { "name": "CENTRE SPATIAL DE LIEGE", "address": "Avenue Pré Aily, Angleur, 4031, BELGIUM" }, "geometry": { "type": "Point", "coordinates": [ 5.57008, 50.59839 ] } },
{ "type": "Feature", "properties": { "name": "CEVEMA SURFACE TREATMENTS - Business Unit Aerospace", "address": "Dellestraat 26, Lummen 3560, BELGIUM" }, "geometry": { "type": "Point", "coordinates": [ 5.23983, 50.98557 ] } },
{ "type": "Feature", "properties": { "name": "COEXPAIR S.A.", "address": "Rue des Entrepreneurs 10, Namur 5020, BELGIUM" }, "geometry": { "type": "Point", "coordinates": [ 4.80379, 50.48613 ] } },
{ "type": "Feature", "properties": { "name": "CONSOLIDATED PRECISION PRODUCTS - BELGIUM", "address": "n°86, PARC INDUSTRIEL DES HAUTS SARTS, HERSTAL, 4040, BELGIUM" }, "geometry": { "type": "Point", "coordinates": [ 5.61994, 50.69514 ] } },
{ "type": "Feature", "properties": { "name": "Capable B.V.", "address": "Industriepark-west 75, 9100 Sint-Niklaas, BELGIUM" }, "geometry": { "type": "Point", "coordinates": [ 4.16243, 51.14034 ] } },
{ "type": "Feature", "properties": { "name": "Carpenter Technology (Europe) S.A.", "address": "Rue Edouard Belin 11, 1435 Mont-Saint-Guibert, Bruxelles, BELGIUM" }, "geometry": { "type": "Point", "coordinates": [ 4.62885, 50.65802 ] } },
{ "type": "Feature", "properties": { "name": "Centre de recherche en aéronautique ASBL (Cenaero)", "address": "29 Rue des Frères Wright 6041, Gosselies, BELGIUM" }, "geometry": { "type": "Point", "coordinates": [ 4.47098, 50.47093 ] } },
{ "type": "Feature", "properties": { "name": "Chimiderouil s.a.", "address": "Rue des Ayettes, 20, Ghlin, 7011, BELGIUM" }, "geometry": { "type": "Point", "coordinates": [ 3.8777, 50.47911 ] } },
{ "type": "Feature", "properties": { "name": "Connect Group N.V.", "address": "Bargiestraat 2, Ieper, 8900, BELGIUM" }, "geometry": { "type": "Point", "coordinates": [ 2.8738, 50.88511 ] } },
{ "type": "Feature", "properties": { "name": "DARDENNE SA", "address": "ZI des Hauts-Sarts   , HERSTAL, BE 4040, BELGIUM" }, "geometry": { "type": "Point", "coordinates": [ 5.6165, 50.69544 ] } },
{ "type": "Feature", "properties": { "name": "Dejond N.V.", "address": "Terbekehofdreef 55-59, ANTWERPEN, 2610, BELGIUM" }, "geometry": { "type": "Point", "coordinates": [ 4.3701, 51.15831 ] } },
{ "type": "Feature", "properties": { "name": "DuPont de Nemours (Belgium) BV", "address": "Antoon Spinoystraat 6, Mechelen, 2800, BELGIUM" }, "geometry": { "type": "Point", "coordinates": [ 4.459, 51.01159 ] } },
{ "type": "Feature", "properties": { "name": "Dumoulin AERO", "address": "Rue AL'TRAPPE 110, ALLEUR, 4432, BELGIUM" }, "geometry": { "type": "Point", "coordinates": [ 5.52882, 50.68252 ] } },
{ "type": "Feature", "properties": { "name": "EHP", "address": "Rue de la Science 9, Nivelles, 1400, BELGIUM" }, "geometry": { "type": "Point", "coordinates": [ 4.35203, 50.58281 ] } },
{ "type": "Feature", "properties": { "name": "FERONYL", "address": "101, boulevard Industriel, MOUSCRON, 7700, BELGIUM" }, "geometry": { "type": "Point", "coordinates": [ 3.25316, 50.751 ] } },
{ "type": "Feature", "properties": { "name": "FIJN MEKANIEK NELISSEN NV", "address": "Vrijheidweg 3, Tongeren, 3700, BELGIUM" }, "geometry": { "type": "Point", "coordinates": [ 5.51705, 50.78552 ] } },
{ "type": "Feature", "properties": { "name": "FN HERSTAL", "address": "VOIE DE LIEGE 33, HERSTAL, 4040, BELGIUM" }, "geometry": { "type": "Point", "coordinates": [ 5.62979, 50.66777 ] } },
{ "type": "Feature", "properties": { "name": "GDTech SA", "address": "Avenue de l'Expansion, 7, 4432 ALLEUR (LIEGE), BELGIUM" }, "geometry": { "type": "Point", "coordinates": [ 5.52839, 50.67937 ] } },
{ "type": "Feature", "properties": { "name": "H.T.M.S. NV", "address": "HEIVELDEKENS 22, KONTICH, 2550, BELGIUM" }, "geometry": { "type": "Point", "coordinates": [ 4.46072, 51.12084 ] } },
{ "type": "Feature", "properties": { "name": "HEXCEL COMPOSITES SPRL", "address": "Rue des Trois Bourdons 54, WELKENRAEDT, B4840, BELGIUM" }, "geometry": { "type": "Point", "coordinates": [ 5.97604, 50.65475 ] } },
{ "type": "Feature", "properties": { "name": "High-Tech Plastics Europe", "address": "38 Rue de la barrière de fer, DOTTIGNIES, 7711, BELGIUM" }, "geometry": { "type": "Point", "coordinates": [ 3.31991, 50.72891 ] } },
{ "type": "Feature", "properties": { "name": "INNOPLAST NV", "address": "Industrieterrein Zwaarveld 65, Hamme, 9220, BELGIUM" }, "geometry": { "type": "Point", "coordinates": [ 4.13103, 51.07267 ] } },
{ "type": "Feature", "properties": { "name": "JD'C Innovation SAFS - Ateliers Jean Del'Cour Asbl", "address": "Rue de l'Expansion 29, Grace-Hollogne, 4460, BELGIUM" }, "geometry": { "type": "Point", "coordinates": [ 5.49424, 50.64948 ] } },
{ "type": "Feature", "properties": { "name": "John Cockerill Defense: - AUBANGE", "address": "Avenue Champion 15, Aubange, 6790, BELGIUM" }, "geometry": { "type": "Point", "coordinates": [ 5.79441, 49.56254 ] } },
{ "type": "Feature", "properties": { "name": "L&D Jet Techniek NV", "address": "Industrieterrein 2/3, Diest, 3290, BELGIUM" }, "geometry": { "type": "Point", "coordinates": [ 5.06707, 50.95863 ] } },
{ "type": "Feature", "properties": { "name": "LA NITRURATION MODERNE SA", "address": "RUE GILLES GALLER 22/24, Liège, 4000, BELGIUM" }, "geometry": { "type": "Point", "coordinates": [ 5.53852, 50.60978 ] } },
{ "type": "Feature", "properties": { "name": "Lambda-X High Tech", "address": "Av. Robert Schuman, 102, Nivelles-Baulers, 1401, BELGIUM" }, "geometry": { "type": "Point", "coordinates": [ 4.32537, 50.6252 ] } },
{ "type": "Feature", "properties": { "name": "MECASOFT", "address": "De la Molignée 60, ANHEE, 5537, BELGIUM" }, "geometry": { "type": "Point", "coordinates": [ 4.84919, 50.31026 ] } },
{ "type": "Feature", "properties": { "name": "MECASPRING", "address": "Rue Prolongement de l'Abbaye, HERSTAL, 4040, BELGIUM" }, "geometry": { "type": "Point", "coordinates": [ 5.63287, 50.69491 ] } },
{ "type": "Feature", "properties": { "name": "MOCKEL S.A./A.G.", "address": "rue du Développement 9, BAELEN, 4837, BELGIUM" }, "geometry": { "type": "Point", "coordinates": [ 6.00399, 50.64215 ] } },
{ "type": "Feature", "properties": { "name": "MPP - MAGNETICO POLISSAGE DE PRECISION", "address": "1ERE AVENUE 66, ZI DES HAUTS SARTS, HERSTAL, BE 4040, BELGIUM" }, "geometry": { "type": "Point", "coordinates": [ 5.60908, 50.69263 ] } },
{ "type": "Feature", "properties": { "name": "Materialise Belgium N.V.", "address": "Technologielaan 15, Leuven, 3001, BELGIUM" }, "geometry": { "type": "Point", "coordinates": [ 4.73434, 50.85287 ] } },
{ "type": "Feature", "properties": { "name": "Mitsubishi Chemical Advanced Materials Belgium N.V.", "address": "Robert Tavernierlaan 2, 8700 Tielt, BELGIUM" }, "geometry": { "type": "Point", "coordinates": [ 3.34194, 51.00205 ] } },
{ "type": "Feature", "properties": { "name": "NEMOTHERM", "address": "11 rue du Commerce Parc Industriel, NIVELLES, 1400, BELGIUM" }, "geometry": { "type": "Point", "coordinates": [ 4.3658, 50.59127 ] } },
{ "type": "Feature", "properties": { "name": "OPTRONIC INSTRUMENTS & PRODUCTS N.V.", "address": "Westerring 21, 9700 Oudenaarde,, BELGIUM" }, "geometry": { "type": "Point", "coordinates": [ 3.60288, 50.86361 ] } },
{ "type": "Feature", "properties": { "name": "PATRIA BELGIUM ENGINE CENTER", "address": "Parc Industriel Des Hauts Sarts, Herstal, Liege, 4041, BELGIUM" }, "geometry": { "type": "Point", "coordinates": [ 5.58076, 50.68495 ] } },
{ "type": "Feature", "properties": { "name": "Parker Hannifin Manufacturing Belgium BVBA", "address": "Rupelweg 11 Antwerp , 2850 BOOM, BELGIUM" }, "geometry": { "type": "Point", "coordinates": [ 4.3577, 51.09499 ] } },
{ "type": "Feature", "properties": { "name": "Pix Coating Srl", "address": "Rue des trois entités 16 4890 Thimister, Clermont, BELGIUM" }, "geometry": { "type": "Point", "coordinates": [ 5.8857, 50.63628 ] } },
{ "type": "Feature", "properties": { "name": "Precision Liegeoise", "address": "rue Désiré Janson 59, Herstal, 4040, BELGIUM" }, "geometry": { "type": "Point", "coordinates": [ 5.62816, 50.67456 ] } },
{ "type": "Feature", "properties": { "name": "Pretec Belgium BV", "address": "KMO Zone Molenheide 4062, 3520, Zonhoven, BELGIUM" }, "geometry": { "type": "Point", "coordinates": [ 5.42916, 50.98354 ] } },
{ "type": "Feature", "properties": { "name": "Redwire Space NV", "address": "Hogenakkerhoekstraat 9, 9150 Kruibeke,, BELGIUM" }, "geometry": { "type": "Point", "coordinates": [ 4.31953, 51.19509 ] } },
{ "type": "Feature", "properties": { "name": "SABCA", "address": "Chaussée de Haecht 1470, BRUXELLES, 1130, BELGIUM" }, "geometry": { "type": "Point", "coordinates": [ 4.41731, 50.88185 ] } },
{ "type": "Feature", "properties": { "name": "SABENA AEROSPACE ENGINEERING", "address": "Site Gosselies, 11 rue des Fusillés, GOSSELIES, 6041, BELGIUM" }, "geometry": { "type": "Point", "coordinates": [ 4.43554, 50.45235 ] } },
{ "type": "Feature", "properties": { "name": "SAFRAN AERO BOOSTERS", "address": "Rue Des Combattants 90, JUPRELLE (LIERS), BE 4450, BELGIUM" }, "geometry": { "type": "Point", "coordinates": [ 5.5782, 50.6984 ] } },
{ "type": "Feature", "properties": { "name": "SCALCO MECANIQUE PRODUCTION", "address": "RUE DE LA CALE SECHE 30, HACCOURT, 4684, BELGIUM" }, "geometry": { "type": "Point", "coordinates": [ 5.67209, 50.72732 ] } },
{ "type": "Feature", "properties": { "name": "SHUR-LOK INTERNATIONAL SA", "address": "Avenue des Biolleux 18, Parc Industriel de Chaineux, PETIT-RECHAIN, 4800, BELGIUM" }, "geometry": { "type": "Point", "coordinates": [ 5.8389, 50.6208 ] } },
{ "type": "Feature", "properties": { "name": "SOBELCOMP SPRL", "address": "RUE DE L’ECONOMIE 13, LONCIN, 4431, BELGIUM" }, "geometry": { "type": "Point", "coordinates": [ 5.49745, 50.67135 ] } },
{ "type": "Feature", "properties": { "name": "SONACA S.A.", "address": "Route Nationale 5, GOSSELIES-CHARLEROI, 6041, BELGIUM" }, "geometry": { "type": "Point", "coordinates": [ 4.44265, 50.46844 ] } },
{ "type": "Feature", "properties": { "name": "SPACE APPLICATIONS SERVICES", "address": "LEUVENSESTEENWEG, 325 – 1932 SINT-STEVENS-WOLUWE, (Brussels Area), BELGIUM" }, "geometry": { "type": "Point", "coordinates": [ 4.46114, 50.87051 ] } },
{ "type": "Feature", "properties": { "name": "ST Engineering iDirect Europe Manufacturing Competence Center", "address": "10, Joseph Cardijnstraat, Erpe-Mere, 9420, BELGIUM" }, "geometry": { "type": "Point", "coordinates": [ 3.96362, 50.93329 ] } },
{ "type": "Feature", "properties": { "name": "Sabena Aerospace Engineering", "address": "Building 117, Vliegveld 117D, Steenokkerzeel , 1820, BELGIUM" }, "geometry": { "type": "Point", "coordinates": [ 4.46609, 50.90751 ] } },
{ "type": "Feature", "properties": { "name": "Saint-Gobain Innovative Materials Belgium", "address": "Heiveldekens 22, Kontich, 2550, BELGIUM" }, "geometry": { "type": "Point", "coordinates": [ 4.46072, 51.12084 ] } },
{ "type": "Feature", "properties": { "name": "Sankyo Tateyama Europe BV", "address": "A. Stocletlaan 87 b, Duffel, 2570, BELGIUM" }, "geometry": { "type": "Point", "coordinates": [ 4.48218, 51.08634 ] } },
{ "type": "Feature", "properties": { "name": "ScioTeq - Avionics", "address": "President Kennedypark 35 A, Kortrijk, B8500, BELGIUM" }, "geometry": { "type": "Point", "coordinates": [ 3.27637, 50.79955 ] } },
{ "type": "Feature", "properties": { "name": "TECHNICAL AIRBORNE COMPONENTS INDUSTRIES", "address": "Rue de l’éperonnerie, 10, MILMORT, 4041, BELGIUM" }, "geometry": { "type": "Point", "coordinates": [ 5.59053, 50.69582 ] } },
{ "type": "Feature", "properties": { "name": "TECNOLON WORKS", "address": "Rue du Forest, 5, MOESKROEN (MOUSCRON), 7700, BELGIUM" }, "geometry": { "type": "Point", "coordinates": [ 3.25542, 50.75288 ] } },
{ "type": "Feature", "properties": { "name": "THALES ALENIA SPACE", "address": "Gaston Geenslaan 9, Building B2, HEVERLEE, 3001, BELGIUM" }, "geometry": { "type": "Point", "coordinates": [ 4.66875, 50.86526 ] } },
{ "type": "Feature", "properties": { "name": "Tarkett B.V.", "address": "Robert Ramlotstraat 89, 9200 Dendermonde,, BELGIUM" }, "geometry": { "type": "Point", "coordinates": [ 4.08886, 51.01629 ] } },
{ "type": "Feature", "properties": { "name": "Tigro Industries N.V", "address": "Ondernemersstraat 33, Lommel, 3920, BELGIUM" }, "geometry": { "type": "Point", "coordinates": [ 5.27653, 51.211 ] } },
{ "type": "Feature", "properties": { "name": "V Coat N.V.- BU Aviation, Space & Defence", "address": "Westlaan 268 3550, Heusden-Zolder, BELGIUM" }, "geometry": { "type": "Point", "coordinates": [ 5.23825, 50.99582 ] } },
{ "type": "Feature", "properties": { "name": "VANHULEN HIGH PRECISION SPRINGS SA", "address": "ZI des Hauts Sarts-Zone II, RUE HAUTE CLAIRE 3, HERSTAL, 4040, BELGIUM" }, "geometry": { "type": "Point", "coordinates": [ 5.60602, 50.68687 ] } },
{ "type": "Feature", "properties": { "name": "VANWERS", "address": "Jean Baptiste Cools, LIEGE, 4000, BELGIUM" }, "geometry": { "type": "Point", "coordinates": [ 5.59808, 50.65343 ] } },
{ "type": "Feature", "properties": { "name": "W.H. Brady N.V.", "address": "Lindestraat 20, 9240 Zele,, BELGIUM" }, "geometry": { "type": "Point", "coordinates": [ 4.05382, 51.07238 ] } },
{ "type": "Feature", "properties": { "name": "WEIMAT S.A.", "address": "HOCHSTRASSE 104/9, EUPEN, 4700, BELGIUM" }, "geometry": { "type": "Point", "coordinates": [ 6.02041, 50.6388 ] } },
{ "type": "Feature", "properties": { "name": "ORAO a.d", "address": "ŠABA?KIH DJAKA B.B, REPUBLIC OF SRPSKA, 76300 BIJELJINA, BOSNIA AND HERZEGOWINA" }, "geometry": { "type": "Point", "coordinates": [ 19.21502, 44.75695 ] } },
{ "type": "Feature", "properties": { "name": "A.S Avionics Services S.A", "address": "Rua Tiangua 136 Vila Mascote, São Paulo, 04363100, BRAZIL" }, "geometry": { "type": "Point", "coordinates": [ -46.66419, -23.64742 ] } },
{ "type": "Feature", "properties": { "name": "AEL SISTEMAS S.A.", "address": "Av. Sertório 4.400, Jardim Floresta, Porto Alegre, RS, 91040-620, BRAZIL" }, "geometry": { "type": "Point", "coordinates": [ -51.20164, -29.99949 ] } },
{ "type": "Feature", "properties": { "name": "AERNNOVA AEROSPACE,SAU- AERNNOVA AEROSPACE DO BRASIL, EIRELI", "address": "ELDORADO CENTRO EMPRESARIAL, SÃO JOSE DOS CAMPOS, SAO PAULO, 12238-580 , BRAZIL" }, "geometry": { "type": "Point", "coordinates": [ -45.91548, -23.2625 ] } },
{ "type": "Feature", "properties": { "name": "AGS AEROHOSES S/A", "address": "1.088 - Retiro da Mantiqueira, Avenida Minas Gerais, , CRUZEIRO - SP, 12712-010, BRAZIL" }, "geometry": { "type": "Point", "coordinates": [ -44.95638, -22.56301 ] } },
{ "type": "Feature", "properties": { "name": "AKAER ENGENHARIA S.A.", "address": "Av. Cesare M. G. Lattes, 501 – E. de Mel, São José dos Campos -SP, 12247-014, BRAZIL" }, "geometry": { "type": "Point", "coordinates": [ -45.79135, -23.15996 ] } },
{ "type": "Feature", "properties": { "name": "ALESTIS AEROSPACE, S.L.- ALESTIS BRASIL", "address": "AV BRIGAD. FARIA L.,JARDIM DA GRA., 12.227-000,S.JOSE DOS CAM, 1699, BRAZIL" }, "geometry": { "type": "Point", "coordinates": [ -48.61377, -27.59504 ] } },
{ "type": "Feature", "properties": { "name": "ALLTEC - IND.DE COMPONENTES EM MATERIAIS COMPOSTOS IMP. E EXP. LTDA", "address": "Bairro Chácaras Reunidas, Rua Moxotó nº 456 (HO), São José dos Campos, 12238-320, BRAZIL" }, "geometry": { "type": "Point", "coordinates": [ -45.92692, -23.25269 ] } },
{ "type": "Feature", "properties": { "name": "APS AIRCRAFT PROPELLER SERVIÇOS AERONAUTICOS LIMITADA", "address": "Bairro Jardim Kanimar, Atibaia, Sao Paulo, CEP, 12954-260, BRAZIL" }, "geometry": { "type": "Point", "coordinates": [ -46.51491, -23.10748 ] } },
{ "type": "Feature", "properties": { "name": "ARITEX BRASIL INDÚSTRIA E COMÉRCIO DE MÁQUINAS E EQUIPAMENTOS LTDA", "address": "Rua Salviano José da Silva 425, São José dos Campos, SP, 12.238573, BRAZIL" }, "geometry": { "type": "Point", "coordinates": [ -45.91546, -23.26474 ] } },
{ "type": "Feature", "properties": { "name": "AVIBRÁS INDÚSTRIA AEROESPACIAL S.A.", "address": "na Estrada Varadouro 1.200, Rodovia dos Tamoios Km 14, Jacareí, SP, 12315-020, BRAZIL" }, "geometry": { "type": "Point", "coordinates": [ -45.86744, -23.24191 ] } },
{ "type": "Feature", "properties": { "name": "Aerocris - Aerocristaldo Indústria e Comércio de Peças EIRELI", "address": "Avenida Marginal, 200A, Areiópolis SP, 18670-000, BRAZIL" }, "geometry": { "type": "Point", "coordinates": [ -48.67505, -22.68731 ] } },
{ "type": "Feature", "properties": { "name": "Anodizar Sorocaba Industrial Ltda.", "address": "R. Prof João Franco de Almeida Filho 325, Sorocaba, SP, 18103-012, BRAZIL" }, "geometry": { "type": "Point", "coordinates": [ -47.39986, -23.4266 ] } },
{ "type": "Feature", "properties": { "name": "Argos Global Partner Services LLC DBA Argosus and AGS US", "address": "1903, Avendia Paulista 575, Sao Paulo - SP, 01311911, BRAZIL" }, "geometry": { "type": "Point", "coordinates": [ -46.65882, -23.55988 ] } },
{ "type": "Feature", "properties": { "name": "Atech - Negócios em Tecnologias S.A.", "address": "Setor II - Salas 1603A 1603B e 1604, R. do Passeio 38 - Ed. Passeio Corp., Rio de Janeiro, 20021290, BRAZIL" }, "geometry": { "type": "Point", "coordinates": [ -43.17645, -22.91214 ] } },
{ "type": "Feature", "properties": { "name": "BETEL AEROINTERIORES LTDA - EPP", "address": "Rua: Miracema, 554, Chacaras Reunidas, São José dos Campos, SP, 12238-360, BRAZIL" }, "geometry": { "type": "Point", "coordinates": [ -45.92281, -23.25157 ] } },
{ "type": "Feature", "properties": { "name": "COMPOENDE ENSAIOS NÃO DESTRUTIVOS LTDA.", "address": "Av. dos Ipês, 391/398, Tremembé, SP, 12120-490, BRAZIL" }, "geometry": { "type": "Point", "coordinates": [ -45.54409, -22.99494 ] } },
{ "type": "Feature", "properties": { "name": "CONTE & CONTE LTDA - EPP", "address": "N° 247, Avenida Dr. Mario Rodrigues Torres, BOTUCATU, SP, 18606-000, BRAZIL" }, "geometry": { "type": "Point", "coordinates": [ -48.44823, -22.90172 ] } },
{ "type": "Feature", "properties": { "name": "Constanta Industrial Ltda.", "address": "Galpões 09 e 10 / Ponte Alta, Avenida Tégula, 888, Atibaia, Sao Paulo 12952-820, BRAZIL" }, "geometry": { "type": "Point", "coordinates": [ -46.67725, -23.04519 ] } },
{ "type": "Feature", "properties": { "name": "DIGICON S.A - CONTROLE ELETRÔNICO PARA MECÂNICA.", "address": "Distrito Industrial, Rua Nissin Castiel, 640 , Gravataí, RS, Rio Grande do Sul 94045-420, BRAZIL" }, "geometry": { "type": "Point", "coordinates": [ -51.00683, -29.95249 ] } },
{ "type": "Feature", "properties": { "name": "DOMA AERO LTDA.", "address": "Av. Tenente José Jerônimo de Mesquita,, 750 SÃO PAULO, SP, 02146-000, BRAZIL" }, "geometry": { "type": "Point", "coordinates": [ -46.56691, -23.49586 ] } },
{ "type": "Feature", "properties": { "name": "EMBRAER S.A. (EDE Equipamentos)", "address": "Rua Itabaiana 40, São José dos Campos, SP, 12237-540, BRAZIL" }, "geometry": { "type": "Point", "coordinates": [ -45.91515, -23.252 ] } },
{ "type": "Feature", "properties": { "name": "ENIFER USINAGEM E INDÚSTRIA LTDA, CRG - CHÁCARAS REUNIDAS TRATAMENTO SUPERFICIAL EIRELI,  INDÚSTRIAS OBLEM LTDA", "address": "Pontes 8.500 - Galpão B1, Av. Dr. Sebastião Henrique da Cunha , São José dos Campos, SP, 12238-365, BRAZIL" }, "geometry": { "type": "Point", "coordinates": [ -45.93176, -23.2483 ] } },
{ "type": "Feature", "properties": { "name": "ERMA TECH Indústria e Soluções em Tecnologia Aeronáutica Ltda.", "address": "Av. Eng. Juarez de Siqueira Britto, Wanderley, 440 - Eldorado, Sao Jose dos Campos, SP, 12238-565, BRAZIL" }, "geometry": { "type": "Point", "coordinates": [ -45.915, -23.26277 ] } },
{ "type": "Feature", "properties": { "name": "Eacial Equipamentos e Acessórios Industriais e Agricolas LTDA", "address": "Rua Antonio Borja Medina 808, Piracicaba, 13422010, BRAZIL" }, "geometry": { "type": "Point", "coordinates": [ -47.59665, -22.73064 ] } },
{ "type": "Feature", "properties": { "name": "Electroimpact do Brasil Indústria Aeroespacial Ltda.", "address": "2911 - Urbanova,, São José dos Campos, 12244-000, BRAZIL" }, "geometry": { "type": "Point", "coordinates": [ -45.93999, -23.20299 ] } },
{ "type": "Feature", "properties": { "name": "Embraer Campinas", "address": "Flex II M13-15-17 - Distrito Industrial, Rua Sérgio Fernandes Borges Soares 1000, Campinas-SP, 13054709, BRAZIL" }, "geometry": { "type": "Point", "coordinates": [ -47.11723, -23.01039 ] } },
{ "type": "Feature", "properties": { "name": "Embraer. S.A. (BOT - Botucatu)", "address": "Av. Alcides Cagliari, 2281, Botucatu - SP, 18608-900, BRAZIL" }, "geometry": { "type": "Point", "coordinates": [ -48.4658, -22.93104 ] } },
{ "type": "Feature", "properties": { "name": "FASTWORK PROGRAM SYSTEMS LTDA", "address": "RUA ANTONIO BORJA MEDINA, 1250 DISTRITO UNILESTE, PIRACICABA, SP, 13422-010, BRAZIL" }, "geometry": { "type": "Point", "coordinates": [ -47.59525, -22.72896 ] } },
{ "type": "Feature", "properties": { "name": "Finetornos-Hernandes Fim & Cia Ltda", "address": "R. Francisco A. de Almeida 50 - P. Indus, Campinas - SP, 13031650, BRAZIL" }, "geometry": { "type": "Point", "coordinates": [ -47.06133, -22.90508 ] } },
{ "type": "Feature", "properties": { "name": "GALVANOBRÁS - GALVANOPLASTIA DO BRASIL LTDA", "address": "Rua Domingos Piunti 361, ITU, SP, 13313-510, BRAZIL" }, "geometry": { "type": "Point", "coordinates": [ -47.31711, -23.24215 ] } },
{ "type": "Feature", "properties": { "name": "GLOBO CENTRAL DE USINAGEM LTDA.", "address": "Rodolfo Alberto Wisling 331 D Industrial, Jambeiro - SP, 12270-000, BRAZIL" }, "geometry": { "type": "Point", "coordinates": [ -45.73433, -23.32408 ] } },
{ "type": "Feature", "properties": { "name": "GMP Marcatto", "address": "Av. Ricieri José Marcatto 990, Mogi das Cruzes, 08810020, BRAZIL" }, "geometry": { "type": "Point", "coordinates": [ -46.15306, -23.50521 ] } },
{ "type": "Feature", "properties": { "name": "GRAÚNA AEROSPACE LTDA", "address": "Rua Januaria, 1100, Chacara Reunida,, Sao Jose Dos Campos/SP, 12238500, BRAZIL" }, "geometry": { "type": "Point", "coordinates": [ -45.92331, -23.25726 ] } },
{ "type": "Feature", "properties": { "name": "H8 ALS INDÚSTRIA AERONÁUTICA LTDA", "address": "Rua Maria Izabel Parra Crivelaro, 98, Oriente-SP, 17507-000, BRAZIL" }, "geometry": { "type": "Point", "coordinates": [ -50.10223, -22.14502 ] } },
{ "type": "Feature", "properties": { "name": "HBR AVIAÇÃO S/A", "address": "Av. Dr. Mauro Lindemberg Monteiro, 979, Osasco - SP, Sao Paulo 06278-010 , BRAZIL" }, "geometry": { "type": "Point", "coordinates": [ -46.77949, -23.47708 ] } },
{ "type": "Feature", "properties": { "name": "Helicópteros do Brasil S/A - Helibras", "address": "Matriz, Rua Santos Dumont 200 Dist Ind, MG-Itajubá, 37.504900, BRAZIL" }, "geometry": { "type": "Point", "coordinates": [ -45.47889, -22.42808 ] } },
{ "type": "Feature", "properties": { "name": "Hi-Mix Eletrônicos S/A", "address": "Rua João Viganó Neto,170 Nuc. Bom Retiro, Pato Branco - PR, 85501970, BRAZIL" }, "geometry": { "type": "Point", "coordinates": [ -52.68581, -26.2245 ] } },
{ "type": "Feature", "properties": { "name": "Honeywell Aerospace", "address": "2170 Sao Jose Dos Campos, SP, PUTIM , 12227-901, BRAZIL" }, "geometry": { "type": "Point", "coordinates": [ -45.8434, -23.24954 ] } },
{ "type": "Feature", "properties": { "name": "IMAGEM AUTOMAÇÃO E USINAGEM LTDA", "address": "Rua Joaçaba 31, São José dos Campos SP, 12238530, BRAZIL" }, "geometry": { "type": "Point", "coordinates": [ -45.92438, -23.25641 ] } },
{ "type": "Feature", "properties": { "name": "INBRA AEROSPACE INDÚSTRIA E COMÉRCIO DE COMPOSTOS AERONÁUTICOS S.A.", "address": "Avenida Papa João XXIII,5153-Sertãozinho, Mauá - SP, 09370800, BRAZIL" }, "geometry": { "type": "Point", "coordinates": [ -46.48189, -23.70772 ] } },
{ "type": "Feature", "properties": { "name": "ISOFLAMA INDÚSTRIA E COMÉRCIO DE EQUIPAMENTOS LTDA", "address": "Distrito Industrial, Rua Alberto Guizo 799-João Narezzi, Indaiatuba SP, 13347402, BRAZIL" }, "geometry": { "type": "Point", "coordinates": [ -47.22174, -23.13362 ] } },
{ "type": "Feature", "properties": { "name": "Inbra Aerospace Indústria e Comércio de Compostos Aeronáuticos S.A.", "address": "4947, Avenida Papa João XXIII, Mauá, 09370800, BRAZIL" }, "geometry": { "type": "Point", "coordinates": [ -46.48111, -23.70776 ] } },
{ "type": "Feature", "properties": { "name": "LANMAR INDUSTRIA METALURGICA LTDA", "address": "RUA PEROLA, 500 - CHACARAS ASSAHY, HORTOLANDIA - SP, 13186524, BRAZIL" }, "geometry": { "type": "Point", "coordinates": [ -47.19675, -22.90609 ] } },
{ "type": "Feature", "properties": { "name": "LATECOERE DO BRASIL INDUSTRIA AERONAUTICA LTDA", "address": "Av. Getulio Dorneles Vargas BR-3320, Jacarei SP, BRAZIL" }, "geometry": { "type": "Point", "coordinates": [ -45.94979, -23.26486 ] } },
{ "type": "Feature", "properties": { "name": "LEGADO USINAGEM LTDA ME", "address": "Rua Guaçuí, 60, Chácaras Reunidas, São José dos Campos, SP, 12238-480, BRAZIL" }, "geometry": { "type": "Point", "coordinates": [ -45.93404, -23.25216 ] } },
{ "type": "Feature", "properties": { "name": "Liebherr Aerospace Brasil Ltda.", "address": "Dr. Hans Liebherr 01 U.I. A - Vila Bela, Guaratinguetá - SP, 12522640, BRAZIL" }, "geometry": { "type": "Point", "coordinates": [ -45.1448, -22.77662 ] } },
{ "type": "Feature", "properties": { "name": "Lima & Bonfá Ind.Com.de Ferramentas Ltda", "address": "Rua Guido Segalho, 375 - Jardim, São Judas Tadeu , Sumaré, SP , 13180-510, BRAZIL" }, "geometry": { "type": "Point", "coordinates": [ -47.16417, -22.85155 ] } },
{ "type": "Feature", "properties": { "name": "MAZATECH INDÚSTRIA LTDA", "address": "Av. Deputado Dante Delmanto 2.413, Botucatu, SP, 18608-393, BRAZIL" }, "geometry": { "type": "Point", "coordinates": [ -48.47043, -22.87079 ] } },
{ "type": "Feature", "properties": { "name": "METALAC SPS INDÚSTRIA E COMÉRCIO LTDA", "address": "Av. Itavuvu 4.690, Sorocaba, SP, 18078-005, BRAZIL" }, "geometry": { "type": "Point", "coordinates": [ -47.47138, -23.48392 ] } },
{ "type": "Feature", "properties": { "name": "METINJO METALIZAÇÃO INDUSTRIAL E IMPORTAÇÃO JOSEENSE LTDA.", "address": "Rua Betim, 80, Sao Jose dos Campos-SP, 12228080, BRAZIL" }, "geometry": { "type": "Point", "coordinates": [ -45.83836, -23.24496 ] } },
{ "type": "Feature", "properties": { "name": "MIRAGE INDÚSTRIA E COMÉRCIO DE PEÇAS LTDA", "address": "Rua Lucelia, 917 - Chacaras Reunidas, Sao Jose dos Campos, SP, 12238-450, BRAZIL" }, "geometry": { "type": "Point", "coordinates": [ -45.92787, -23.25517 ] } },
{ "type": "Feature", "properties": { "name": "Magnaghi Aeronáutica do Brasil Ind. Com. Ltda", "address": "Rua Januaria, 882 Chacaras Reunidas, Sao Jose dos Campos, SP, 12.238-500, BRAZIL" }, "geometry": { "type": "Point", "coordinates": [ -45.92587, -23.25725 ] } },
{ "type": "Feature", "properties": { "name": "Massucato Industria e Comércio Ltda", "address": "430 Chácara Campos dos Amarais, Rua Rui Ildefonso Martins Lisboa, Campinas, SP, 13082-020, BRAZIL" }, "geometry": { "type": "Point", "coordinates": [ -47.10353, -22.85561 ] } },
{ "type": "Feature", "properties": { "name": "Metalúrgica Guaporé LTDA", "address": "Rua Caiapós 364 - Vila Pires, Santo André - SP, BRAZIL" }, "geometry": { "type": "Point", "coordinates": [ -46.50747, -23.67546 ] } },
{ "type": "Feature", "properties": { "name": "Miguel Giuliani Tocillo - EPP", "address": "Avenida Monteiro Lobato , 2365 - São Roque, Guarulhos, SP, 07190-000, BRAZIL" }, "geometry": { "type": "Point", "coordinates": [ -46.50587, -23.46414 ] } },
{ "type": "Feature", "properties": { "name": "Mikro Stamp Estamparia Comercio e Indust", "address": "Jovelino Ap. Miguel 160 - Jardim do Lago, Campinas - SP, 13051030, BRAZIL" }, "geometry": { "type": "Point", "coordinates": [ -47.08713, -22.94314 ] } },
{ "type": "Feature", "properties": { "name": "NSE BRASIL AEROESPACIAL LDTA", "address": "2.080 - Galpão 11, JACAREI, SP, 12305-490, BRAZIL" }, "geometry": { "type": "Point", "coordinates": [ -45.94684, -23.28289 ] } },
{ "type": "Feature", "properties": { "name": "OCELLOTT ENGENHARIA LTDA.", "address": "- Centro Empresarial IV, Av. Dr. Altino Bondesan, 500-Sala 1.303, São José dos Campos- SP, 12247-016, BRAZIL" }, "geometry": { "type": "Point", "coordinates": [ -45.88488, -23.17336 ] } },
{ "type": "Feature", "properties": { "name": "Ocellott Engenharia Ltda.", "address": "Av. Francisco Andrade Ribeiro, 543 - Bloco 5, Santa Rita do Sapucai, Minas Gerais 37540-000, BRAZIL" }, "geometry": { "type": "Point", "coordinates": [ -45.70915, -22.25604 ] } },
{ "type": "Feature", "properties": { "name": "Orbital Engenharia S.A.", "address": "R.N.C. de Oliveira, 622, Jd. das Ind., São José dos Campos, SP, 12240220, BRAZIL" }, "geometry": { "type": "Point", "coordinates": [ -45.92011, -23.22655 ] } },
{ "type": "Feature", "properties": { "name": "PDB AEROSPACE LTDA.", "address": "Rua Lucélia, 874 / 884 / 894, São José dos Campos, SP, 12238-450, BRAZIL" }, "geometry": { "type": "Point", "coordinates": [ -45.92844, -23.25494 ] } },
{ "type": "Feature", "properties": { "name": "PRL INDÚSTRIA E COMÉRCIO DE ADESIVOS LTDA.", "address": "Rua Pedro Rachid,846 - Bloco E - Santana, São José dos Campos,SP, 12211-180, BRAZIL" }, "geometry": { "type": "Point", "coordinates": [ -45.90287, -23.16475 ] } },
{ "type": "Feature", "properties": { "name": "Pan-Metal Indústria Metalúrgica Ltda.", "address": "(Area Industrial Vale do Pir), Avenida Eurico Ambrogi Santos, 1300, Taubaté - SP, 12042-010, BRAZIL" }, "geometry": { "type": "Point", "coordinates": [ -45.62177, -23.04181 ] } },
{ "type": "Feature", "properties": { "name": "Planifer-Ferramentaria e Estamparia Ltda.", "address": "71 - Pólo de Alta Tecnologia, Rua Baptista Pagotto,, Campinas-SP, 13069-200, BRAZIL" }, "geometry": { "type": "Point", "coordinates": [ -47.13521, -22.85181 ] } },
{ "type": "Feature", "properties": { "name": "Plasmahub Engenharia e Indústria, Exportação e Importação Ltda.", "address": "Avenida Doutor Sebastião Henrique da Cunha Pontes, 8500, São José dos Campos, Sao Paulo 12238-365 , BRAZIL" }, "geometry": { "type": "Point", "coordinates": [ -45.93883, -23.2531 ] } },
{ "type": "Feature", "properties": { "name": "Plasteam Indústria e Comércio de Plásticos e Metais Ltda. EPP", "address": "Rua Monte Azul 280 Chácaras Reunidas, São José dos Campos - SP, 12.238350, BRAZIL" }, "geometry": { "type": "Point", "coordinates": [ -45.92726, -23.24902 ] } },
{ "type": "Feature", "properties": { "name": "Pressmecânica Comércio e Serviços Ltda-EPP", "address": "Rod.Geraldo Scav.2080-Gp27-Jd.Califórnia, Jacareí-SP, 12305490, BRAZIL" }, "geometry": { "type": "Point", "coordinates": [ -45.94701, -23.28318 ] } },
{ "type": "Feature", "properties": { "name": "RIBFER USINAGEM E FERRAMENTARIA LTDA", "address": "R.ANTONIA M. LUIZ,111 D.I.J. NAREZZI, INDAIATUBA   SÃO PAULO, 13347404, BRAZIL" }, "geometry": { "type": "Point", "coordinates": [ -47.22602, -23.12981 ] } },
{ "type": "Feature", "properties": { "name": "Recominte Indústria e Comércio de Peças Aeronáuticas Ltda.", "address": "Hangar G13, Av. Edouard Six 540 Jardim Paraíba, Jacareí / SP, 12327-673, BRAZIL" }, "geometry": { "type": "Point", "coordinates": [ -45.97363, -23.2959 ] } },
{ "type": "Feature", "properties": { "name": "Ribfer Usinagem e Ferramentaria Ltda.", "address": "Rua Antonio Brandolin 80, Elias Fausto - SP, 13350000, BRAZIL" }, "geometry": { "type": "Point", "coordinates": [ -47.36579, -23.0334 ] } },
{ "type": "Feature", "properties": { "name": "SERCO COOPERATIVA DE TRABALHO", "address": "Distrito de Eugênio de Melo, Rua 21 de Abril, 1.100, São José dos Campos, SP, 12247-100, BRAZIL" }, "geometry": { "type": "Point", "coordinates": [ -45.78487, -23.1377 ] } },
{ "type": "Feature", "properties": { "name": "SIATT - ENGENHARIA, INDÚSTRIA E COMÉRCIO LTDA.", "address": "Salas 206e202, CE4–Salas1201,1203e1204, Est. Doutor Altino Bondensan 500-CE 1, São José dos Campos SP, 12247-016, BRAZIL" }, "geometry": { "type": "Point", "coordinates": [ -45.78286, -23.15108 ] } },
{ "type": "Feature", "properties": { "name": "STB AERONÁUTICA E MECÂNICA INDUSTRIAL LTDA", "address": "RUA LOURIVAL FERREIRA,127, BOTUCATU, SP, 18608-853, BRAZIL" }, "geometry": { "type": "Point", "coordinates": [ -48.46282, -22.86146 ] } },
{ "type": "Feature", "properties": { "name": "SYMAQ INDUSTRIA MECANICA LTDA", "address": "Av. Deputado Dante Delmanto 2.438, Botucatu SP, 18608-393, BRAZIL" }, "geometry": { "type": "Point", "coordinates": [ -48.47043, -22.87079 ] } },
{ "type": "Feature", "properties": { "name": "TECPLAS INDÚSTRIA E COMÉRCIO LTDA", "address": "Rua Arnaldo Domingos Mota, 35, São José dos Campos - SP, 12238-572, BRAZIL" }, "geometry": { "type": "Point", "coordinates": [ -45.91324, -23.26415 ] } },
{ "type": "Feature", "properties": { "name": "TRELLEBORG DO BRASIL SOLUÇÕES EM VEDAÇÃO LTDA", "address": "Henrique da Cunha Pontes, Av. Dr. Sebastião, São José dos Campos - SP,, 12238-365, BRAZIL" }, "geometry": { "type": "Point", "coordinates": [ -45.93176, -23.2483 ] } },
{ "type": "Feature", "properties": { "name": "Termomecanica São Paulo SA", "address": "Compl. 2700; R. 12 de Outubro 148, Av. Caminho do Mar 2652, São Bernardo do Campo, 09612000, BRAZIL" }, "geometry": { "type": "Point", "coordinates": [ -46.56848, -23.66167 ] } },
{ "type": "Feature", "properties": { "name": "Titanio Usinagem Ltda", "address": "Rodovia Geraldo Scanove, 2300, Jacareí-SP , 12.305-490, BRAZIL" }, "geometry": { "type": "Point", "coordinates": [ -45.93757, -23.27511 ] } },
{ "type": "Feature", "properties": { "name": "Toyo Matic Aerospace LTDA", "address": "Est.Mun. Vereador Alvaro Alessandri 1017, Bragança Paulista, 12903841, BRAZIL" }, "geometry": { "type": "Point", "coordinates": [ -46.59432, -22.94769 ] } },
{ "type": "Feature", "properties": { "name": "UFT do Brasil Industria Mecânica LTDA", "address": "Av. Marginal do Rio Jundiai, 440, Várzea Paulista, SP, 13221-800, BRAZIL" }, "geometry": { "type": "Point", "coordinates": [ -46.8267, -23.20661 ] } },
{ "type": "Feature", "properties": { "name": "UTEC – Industria, Comercio, Serviços e Usinagem de Peças Aeroespaciais Ltda. – ME", "address": "RUA JOSÉ DE CAMPOS 96 - JD. MORUMBI, São José dos Campos - SP, 12236650, BRAZIL" }, "geometry": { "type": "Point", "coordinates": [ -45.90963, -23.25831 ] } },
{ "type": "Feature", "properties": { "name": "Usimaza Indústria Ltda - ME", "address": "Travessa Quirino Custódio da Silva, 51, São José dos Campos, SP, 12211-181, BRAZIL" }, "geometry": { "type": "Point", "coordinates": [ -45.89534, -23.16406 ] } },
{ "type": "Feature", "properties": { "name": "VEMAX USINAGEM – EIRELI - EPP", "address": "Av. Waldermar Vizotto,168,Jd. Sta.Eliza, Botucatu, SP, 18607-502, BRAZIL" }, "geometry": { "type": "Point", "coordinates": [ -48.47461, -22.91605 ] } },
{ "type": "Feature", "properties": { "name": "Villares Metals S.A.", "address": "Jardim Santa Carolina, Rua Alfredo Dumont Villares, 155, Sumaré - SP, 13178902, BRAZIL" }, "geometry": { "type": "Point", "coordinates": [ -47.20967, -22.7978 ] } },
{ "type": "Feature", "properties": { "name": "WF ESTRUTURAS E SISTEMAS LTDA", "address": "RUA ISAURA FERNANDES DOS SANTOS, 61, Botucatu, SP, 18608-850, BRAZIL" }, "geometry": { "type": "Point", "coordinates": [ -48.49224, -22.8533 ] } },
{ "type": "Feature", "properties": { "name": "WINNSTAL INDÚSTRIA E COMÉRCIO LTDA.", "address": "RUA MIRACEMA 370 - CHÁCARAS REUNIDAS, SÃO JOSÉ DOS CAMPOS, SP, 12.238-360, BRAZIL" }, "geometry": { "type": "Point", "coordinates": [ -45.92413, -23.24967 ] } },
{ "type": "Feature", "properties": { "name": "Gilat Satellite Networks - Aerospace Div.-  RaySat Bulgaria Ltd", "address": "2A Mogilata St., Sofia, 1700, BULGARIA" }, "geometry": { "type": "Point", "coordinates": [ 23.32806, 42.65577 ] } },
{ "type": "Feature", "properties": { "name": "SATIXFY BULGARIA EOOD", "address": "149 Tsarigradsko Shose Blvd, Sofia, 1784, BULGARIA" }, "geometry": { "type": "Point", "coordinates": [ 23.3963, 42.64807 ] } },
{ "type": "Feature", "properties": { "name": "Woodward Bulgaria EOOD", "address": "Logistics Building B03 Entrance 2, 64 Hristofor Kolumb Blvd., Sofia, 1592, BULGARIA" }, "geometry": { "type": "Point", "coordinates": [ 23.32187, 42.69771 ] } },
{ "type": "Feature", "properties": { "name": "Rolls-Royce plc - Indianapolis - Liberty Works, Excellence Building and Dock", "address": "2039 South Tibbs Ave, Indianapolis, 46241, BURKINA FASO" }, "geometry": { "type": "Point", "coordinates": [ -1.56159, 12.23833 ] } },
{ "type": "Feature", "properties": { "name": "2119485 Alberta Ltd. O/A Dellcom Aerospace", "address": "301 Millway Avenue, Concord, Ontario L4K 4T3, CANADA" }, "geometry": { "type": "Point", "coordinates": [ -79.52816, 43.80161 ] } },
{ "type": "Feature", "properties": { "name": "2624492 Ontario Inc. DBA Aerosafe Processing", "address": "1360 Commerce Pkwy, Fort Erie, Ontario L2A 5N1, CANADA" }, "geometry": { "type": "Point", "coordinates": [ -78.96849, 42.92402 ] } },
{ "type": "Feature", "properties": { "name": "3 Points Aviation Corp.", "address": "75 Superior Blvd., Mississauga, Ontario L5T 2X9, CANADA" }, "geometry": { "type": "Point", "coordinates": [ -79.69831, 43.64331 ] } },
{ "type": "Feature", "properties": { "name": "757680 Ontario Ltd.", "address": "7-1809 Britannia Road E, Mississauga, Ontario L4W 1S6, CANADA" }, "geometry": { "type": "Point", "coordinates": [ -79.6407, 43.66233 ] } },
{ "type": "Feature", "properties": { "name": "A-Line Precision Tool Ltd", "address": "155 Sun Pac Blvd, Brampton, Ontario L6S 5Z6, CANADA" }, "geometry": { "type": "Point", "coordinates": [ -79.69222, 43.75549 ] } },
{ "type": "Feature", "properties": { "name": "A. Berger Precision Ltd", "address": "28 Regan Road, Brampton, Ontario L7A 1A7, CANADA" }, "geometry": { "type": "Point", "coordinates": [ -79.80639, 43.70364 ] } },
{ "type": "Feature", "properties": { "name": "A.E. Blake Sales Ltd.", "address": "3588 Poirier Boulevard, Montreal, Quebec H4R 2J5, CANADA" }, "geometry": { "type": "Point", "coordinates": [ -73.718, 45.49947 ] } },
{ "type": "Feature", "properties": { "name": "A.T.G. Industries Inc.", "address": "760 Rue Industrielle, Rockland, Ontario K4K 1T2, CANADA" }, "geometry": { "type": "Point", "coordinates": [ -75.27308, 45.55909 ] } },
{ "type": "Feature", "properties": { "name": "A.T.L.A.S. Aeronautik Inc.", "address": "1181 Arthur-Danis, Granby, Quebec J2J 0T3, CANADA" }, "geometry": { "type": "Point", "coordinates": [ -72.78466, 45.37784 ] } },
{ "type": "Feature", "properties": { "name": "A3 Surfaces Inc.", "address": "1433 rue de la Manic,, Chicoutimi, Quebec G7K 1GB, CANADA" }, "geometry": { "type": "Point", "coordinates": [ -71.11779, 48.40138 ] } },
{ "type": "Feature", "properties": { "name": "A7 Integration", "address": "849 rue Moeller, Granby, Quebec J2J 1R1, CANADA" }, "geometry": { "type": "Point", "coordinates": [ -72.76201, 45.39282 ] } },
{ "type": "Feature", "properties": { "name": "ABB Electrification Canada ULC", "address": "180 Ave Labrosse, Pointe-Claire, Quebec H9R 1A1, CANADA" }, "geometry": { "type": "Point", "coordinates": [ -73.8207, 45.47401 ] } },
{ "type": "Feature", "properties": { "name": "AIRBUS ATLANTIC CANADA", "address": "12000 rue Henry Giffard, MIRABEL, Quebec J7N 1H4, CANADA" }, "geometry": { "type": "Point", "coordinates": [ -74.04929, 45.67515 ] } },
{ "type": "Feature", "properties": { "name": "AIRSTART", "address": "Suite 901, 2680 Skymark Ave, Mississauga, Ontario L4W 5L6, CANADA" }, "geometry": { "type": "Point", "coordinates": [ -79.59642, 43.65915 ] } },
{ "type": "Feature", "properties": { "name": "AJW Technique Inc", "address": "100-7055 rue Alexander-Fleming, Saint-Laurent, Quebec H4S 2B7, CANADA" }, "geometry": { "type": "Point", "coordinates": [ -73.7626, 45.47816 ] } },
{ "type": "Feature", "properties": { "name": "AMEC Usinage Inc.", "address": "110 Rue des Grands-Lacs, Saint-Augustin-de-Desmaures, Quebec G3A 2K1, CANADA" }, "geometry": { "type": "Point", "coordinates": [ -71.44997, 46.75253 ] } },
{ "type": "Feature", "properties": { "name": "AP&C Advanced Powders & Coatings Inc.", "address": "241 rue Allée du Golf, Saint-Eustache, Quebec J7R 0L5, CANADA" }, "geometry": { "type": "Point", "coordinates": [ -73.93087, 45.55868 ] } },
{ "type": "Feature", "properties": { "name": "APN Inc.", "address": "2659 Boul. du Parc Technologique, Québec, Quebec G1P 4S5, CANADA" }, "geometry": { "type": "Point", "coordinates": [ -71.30475, 46.7964 ] } },
{ "type": "Feature", "properties": { "name": "Abipa Canada, Inc.", "address": "3700  Avenue des Grandes Tourelles, Boisbriand, Quebec J7H0A1, CANADA" }, "geometry": { "type": "Point", "coordinates": [ -73.85947, 45.6329 ] } },
{ "type": "Feature", "properties": { "name": "Accenture Inc.", "address": "Suite 1520, 5 Place Ville-Marie, Montréal, Quebec H3B 2G2, CANADA" }, "geometry": { "type": "Point", "coordinates": [ -73.56935, 45.50086 ] } },
{ "type": "Feature", "properties": { "name": "Action Aero Inc.", "address": "91 Watts Avenue, Charlottetown, Prince Edward Island C1E 2B7, CANADA" }, "geometry": { "type": "Point", "coordinates": [ -63.17239, 46.26756 ] } },
{ "type": "Feature", "properties": { "name": "Adhetec Canada", "address": "680, boul. Lemire, Drummondville, Quebec J2C 7W9, CANADA" }, "geometry": { "type": "Point", "coordinates": [ -72.52794, 45.88045 ] } },
{ "type": "Feature", "properties": { "name": "AeroTek Manufacturing Ltd", "address": "1449 Hopkins Street, Whitby, Ontario L1N2C2, CANADA" }, "geometry": { "type": "Point", "coordinates": [ -78.91584, 43.87135 ] } },
{ "type": "Feature", "properties": { "name": "Aerocom Specialty Fittings Inc.", "address": "16747 Hymus Boulevard, Kirkland, Quebec H9H 3L4, CANADA" }, "geometry": { "type": "Point", "coordinates": [ -73.84681, 45.45052 ] } },
{ "type": "Feature", "properties": { "name": "Aerospatiale Hemmingford Inc.", "address": "447 Route 202, Hemmingford, Quebec J0L1H0, CANADA" }, "geometry": { "type": "Point", "coordinates": [ -73.5931, 45.04647 ] } },
{ "type": "Feature", "properties": { "name": "Aerosphere Inc.", "address": "Suite 100, 21 chemin de l'Aviation, Pointe-Claire, Quebec H9R4Z2, CANADA" }, "geometry": { "type": "Point", "coordinates": [ -73.79358, 45.46818 ] } },
{ "type": "Feature", "properties": { "name": "Aerosystems International Inc.", "address": "215, Av. Du Voyageur, Point Claire, Quebec  H9R 6B1, CANADA" }, "geometry": { "type": "Point", "coordinates": [ -73.79114, 45.46457 ] } },
{ "type": "Feature", "properties": { "name": "Air Data Inc.", "address": "5930, rue Côte-de-Liesse, Montreal, Quebec H4T1C9, CANADA" }, "geometry": { "type": "Point", "coordinates": [ -73.68049, 45.49046 ] } },
{ "type": "Feature", "properties": { "name": "AirPro SAR Services Inc.", "address": "Suite 1220, 360 Albert Street, Ottawa, Ontario K1R 7X7, CANADA" }, "geometry": { "type": "Point", "coordinates": [ -75.70357, 45.41817 ] } },
{ "type": "Feature", "properties": { "name": "Airborn Flexible Circuits, Inc.", "address": "11 Dohme Avenue, Toronto, Ontario M4B 1Y7, CANADA" }, "geometry": { "type": "Point", "coordinates": [ -79.31195, 43.71126 ] } },
{ "type": "Feature", "properties": { "name": "Airheart  Distributing Inc.", "address": "1100 Meyerside Drive, Mississauga, Ontario L5T 1J4, CANADA" }, "geometry": { "type": "Point", "coordinates": [ -79.66159, 43.65277 ] } },
{ "type": "Feature", "properties": { "name": "Airstart, Inc.", "address": "175 Westcreek Blvd Unit 2 Dock 2, Brampton, Ontario L6T 5S6, CANADA" }, "geometry": { "type": "Point", "coordinates": [ -79.70142, 43.67931 ] } },
{ "type": "Feature", "properties": { "name": "Align Aerospace LLC", "address": "135 Chemin du Tremblay, Boucherville, Quebec J4B 7K4, CANADA" }, "geometry": { "type": "Point", "coordinates": [ -73.42733, 45.56093 ] } },
{ "type": "Feature", "properties": { "name": "All Custom Gasket & Materials Limited", "address": "355  Watline Avenue, Mississauga, Ontario L4Z 1P3, CANADA" }, "geometry": { "type": "Point", "coordinates": [ -79.66323, 43.62822 ] } },
{ "type": "Feature", "properties": { "name": "Almaho Inc.", "address": "994 rue des Calfats, Lévis, Quebec G6Y 9V5, CANADA" }, "geometry": { "type": "Point", "coordinates": [ -71.12301, 46.8166 ] } },
{ "type": "Feature", "properties": { "name": "Alphacasting Inc", "address": "391 Ste-Croix Boulevard, St-Laurent, Quebec H4N 2L3, CANADA" }, "geometry": { "type": "Point", "coordinates": [ -73.66865, 45.51102 ] } },
{ "type": "Feature", "properties": { "name": "Amphenol Borisch Technologies, Inc.", "address": "2480 Huron Street, Unit 5, London, Ontario N5V 0B1, CANADA" }, "geometry": { "type": "Point", "coordinates": [ -81.16545, 43.03483 ] } },
{ "type": "Feature", "properties": { "name": "Anodisation Québec Inc", "address": "306 avenue Galilée, Québec, Quebec G1P 4M9, CANADA" }, "geometry": { "type": "Point", "coordinates": [ -71.2924, 46.80104 ] } },
{ "type": "Feature", "properties": { "name": "Anodizing & Paint TNM Inc.", "address": "21, Chemin de l'Aviation, Pointe-Claire, Quebec H9R4Z2, CANADA" }, "geometry": { "type": "Point", "coordinates": [ -73.79451, 45.46771 ] } },
{ "type": "Feature", "properties": { "name": "Apex Industries Inc.", "address": "65 Millennium Blvd., Moncton, New Brunswick E1E2G7, CANADA" }, "geometry": { "type": "Point", "coordinates": [ -64.80572, 46.09016 ] } },
{ "type": "Feature", "properties": { "name": "Appolo Machine Ltd.", "address": "5700 McAdam Rd., Mississauga, Ontario L4Z 1T2, CANADA" }, "geometry": { "type": "Point", "coordinates": [ -79.66621, 43.62391 ] } },
{ "type": "Feature", "properties": { "name": "Archer Precision Inc.", "address": "2228 Gladwin Crescent, Ottawa, Ontario K1B 4S6, CANADA" }, "geometry": { "type": "Point", "coordinates": [ -75.62486, 45.4059 ] } },
{ "type": "Feature", "properties": { "name": "Armatec Survivability Corp.", "address": "DaVinci Business Park, One Newton Ave, Dorchester, Ontario N0L 1G4, CANADA" }, "geometry": { "type": "Point", "coordinates": [ -81.08756, 42.99331 ] } },
{ "type": "Feature", "properties": { "name": "Arnprior Aerospace Inc.", "address": "107 Baskin Drive East, Arnprior, Ontario K7S3M1, CANADA" }, "geometry": { "type": "Point", "coordinates": [ -76.36174, 45.41806 ] } },
{ "type": "Feature", "properties": { "name": "Artaflex Toronto Inc.", "address": "181 Whitehall Drive, Markham, Ontario L3R 9T1, CANADA" }, "geometry": { "type": "Point", "coordinates": [ -79.34255, 43.85749 ] } },
{ "type": "Feature", "properties": { "name": "Artaflex-Ottawa Inc.", "address": "360 Terry Fox Drive, Kanata, Ontario K2K2P5, CANADA" }, "geometry": { "type": "Point", "coordinates": [ -75.92021, 45.35108 ] } },
{ "type": "Feature", "properties": { "name": "Astronics - Luminescent Systems Canada, Inc", "address": "55 Av Lindsay, Dorval, Quebec H9P 2S6, CANADA" }, "geometry": { "type": "Point", "coordinates": [ -73.72479, 45.45581 ] } },
{ "type": "Feature", "properties": { "name": "Atelier d'usinage Mégatech", "address": "340 ave Galilee, Quebec, Quebec G1P4M9, CANADA" }, "geometry": { "type": "Point", "coordinates": [ -71.293, 46.80064 ] } },
{ "type": "Feature", "properties": { "name": "Atlantic Hardchrome Limited", "address": "5 Notting Court,Burnside Industrial Park, Dartmouth, Nova Scotia B3B 1N2, CANADA" }, "geometry": { "type": "Point", "coordinates": [ -63.60105, 44.70927 ] } },
{ "type": "Feature", "properties": { "name": "Aversan Electronics Manufacturing Inc.", "address": "Unit #32, 5155 Spectrum Way,, Mississauga, Ontario L4W 5A1, CANADA" }, "geometry": { "type": "Point", "coordinates": [ -79.61006, 43.65117 ] } },
{ "type": "Feature", "properties": { "name": "Avion Technologies Inc.", "address": "1203 Lorimar Drive, Mississauga, Ontario L5S1M9, CANADA" }, "geometry": { "type": "Point", "coordinates": [ -79.68211, 43.67154 ] } },
{ "type": "Feature", "properties": { "name": "Avior Integrated Products, Inc.", "address": "Suite 200, 1001 Autoroute 440 West, Laval, Quebec H7L 3W3, CANADA" }, "geometry": { "type": "Point", "coordinates": [ -73.74333, 45.58037 ] } },
{ "type": "Feature", "properties": { "name": "Avitec Tools Inc.", "address": "11355 Armand Bombardier, Montreal, Quebec H1E6N2, CANADA" }, "geometry": { "type": "Point", "coordinates": [ -73.58251, 45.62637 ] } },
{ "type": "Feature", "properties": { "name": "Aviya Aerospace Systems", "address": "Suite 1200, 5800 Hurontario St, Mississauga, Ontario L5R 4B9, CANADA" }, "geometry": { "type": "Point", "coordinates": [ -79.67484, 43.62178 ] } },
{ "type": "Feature", "properties": { "name": "Avwind International Inc.", "address": "6611 Edwards Blvd, Mississauga, Ontario L5T 2H8, CANADA" }, "geometry": { "type": "Point", "coordinates": [ -79.69256, 43.64106 ] } },
{ "type": "Feature", "properties": { "name": "B&R Custom Machining Ltd.", "address": "15 Roxboro Rd., Cambridge, Ontario N1R7Y7, CANADA" }, "geometry": { "type": "Point", "coordinates": [ -80.31334, 43.3723 ] } },
{ "type": "Feature", "properties": { "name": "BCI - MIRABEL 1", "address": "Porte 5 – 6, MIRABEL, Quebec J7N 1E1, CANADA" }, "geometry": { "type": "Point", "coordinates": [ -74.0327, 45.68095 ] } },
{ "type": "Feature", "properties": { "name": "Battlefield International Inc.", "address": "1664 Kohler Road, Cayuga, Ontario N0A 1E0, CANADA" }, "geometry": { "type": "Point", "coordinates": [ -79.87898, 42.93671 ] } },
{ "type": "Feature", "properties": { "name": "Bearing Bronze Limited", "address": "360 Sheldon Drive, Cambridge, Ontario N1T1A9, CANADA" }, "geometry": { "type": "Point", "coordinates": [ -80.29748, 43.40831 ] } },
{ "type": "Feature", "properties": { "name": "Bell Textron Canada Ltd.", "address": "12800 rue de l'Avenir, Mirabel, Quebec J7J-1R4, CANADA" }, "geometry": { "type": "Point", "coordinates": [ -73.9242, 45.68331 ] } },
{ "type": "Feature", "properties": { "name": "Ben Machine Products Co. Inc.", "address": "8065 Huntington Road, Unit 1, Vaughan, Ontario L4H 3T9, CANADA" }, "geometry": { "type": "Point", "coordinates": [ -79.64798, 43.7767 ] } },
{ "type": "Feature", "properties": { "name": "Besnovo Technologies Inc.", "address": "695 Westney Road S., Ajax, Ontario L1S 6M9, CANADA" }, "geometry": { "type": "Point", "coordinates": [ -79.02755, 43.82898 ] } },
{ "type": "Feature", "properties": { "name": "Billet Precision.Ltd.", "address": "2730 Fenton Road, Gloucester, Ontario K1T 3T7, CANADA" }, "geometry": { "type": "Point", "coordinates": [ -75.62229, 45.3197 ] } },
{ "type": "Feature", "properties": { "name": "Bisco Industries", "address": "UNIT D6-7, 1173 NORTH SERVICE ROAD WEST, Oakville, Ontario L6M 2V9, CANADA" }, "geometry": { "type": "Point", "coordinates": [ -79.71591, 43.4353 ] } },
{ "type": "Feature", "properties": { "name": "Bombardier Aerospace", "address": "1800 Blvd Marcel-Laurin, St. Laurent, Quebec H4R 1K2, CANADA" }, "geometry": { "type": "Point", "coordinates": [ -73.69962, 45.5149 ] } },
{ "type": "Feature", "properties": { "name": "Bradley Ontario Precision Inc.", "address": "Unit 2, 164 Buttermill Avenue, Concord, Ontario L4K 3X6, CANADA" }, "geometry": { "type": "Point", "coordinates": [ -79.5323, 43.80187 ] } },
{ "type": "Feature", "properties": { "name": "Brampton Processing", "address": "Units 19 & 20, 171 Advance Boulevard, Brampton, Ontario L6T 4Z6, CANADA" }, "geometry": { "type": "Point", "coordinates": [ -79.69156, 43.694 ] } },
{ "type": "Feature", "properties": { "name": "Bray Metals Inc.", "address": "1856 Onesime-Gagnon, Lachine, Quebec H8T 3J7, CANADA" }, "geometry": { "type": "Point", "coordinates": [ -73.70233, 45.46068 ] } },
{ "type": "Feature", "properties": { "name": "Brennan Industries", "address": "290 Courtneypark Drive East, Mississauga, Ontario L5T 2S5, CANADA" }, "geometry": { "type": "Point", "coordinates": [ -79.68724, 43.6423 ] } },
{ "type": "Feature", "properties": { "name": "Brotech Precision CNC Inc.", "address": "711 Bayview Drive, Barrie, Ontario L4N9A5, CANADA" }, "geometry": { "type": "Point", "coordinates": [ -79.67608, 44.32944 ] } },
{ "type": "Feature", "properties": { "name": "Bryce Industries Inc.", "address": "2266 Drew Road #7, Mississauga, Ontario L5S 1B1, CANADA" }, "geometry": { "type": "Point", "coordinates": [ -79.66304, 43.69496 ] } },
{ "type": "Feature", "properties": { "name": "Burloak Technologies Inc.", "address": "3280 South Service Rd W, Oakville, Ontario L6L 0B1, CANADA" }, "geometry": { "type": "Point", "coordinates": [ -79.74893, 43.40089 ] } },
{ "type": "Feature", "properties": { "name": "C.P.S. Industries Inc.", "address": "30, chemin de l'Aviation, Pointe-Claire, Quebec H9R5M6, CANADA" }, "geometry": { "type": "Point", "coordinates": [ -73.79406, 45.46671 ] } },
{ "type": "Feature", "properties": { "name": "C.R. Usinage, Inc.", "address": "260-30 Rodolphe-Besner, Vaudreuil-Dorion, Quebec J7V 8P2, CANADA" }, "geometry": { "type": "Point", "coordinates": [ -74.04495, 45.3755 ] } },
{ "type": "Feature", "properties": { "name": "CAE Inc.", "address": "8585 Cote-de-Liesse, Saint-Laurent, Quebec H4T 1G6, CANADA" }, "geometry": { "type": "Point", "coordinates": [ -73.70653, 45.47524 ] } },
{ "type": "Feature", "properties": { "name": "CAM-TAG Industries Inc.", "address": "2783 Fenton Road, Ottawa, Ontario K1T3T8, CANADA" }, "geometry": { "type": "Point", "coordinates": [ -75.61907, 45.3206 ] } },
{ "type": "Feature", "properties": { "name": "CASP Aerospace Inc.", "address": "98 Columbus Ave., Pointe Claire, Quebec H9R 4K4, CANADA" }, "geometry": { "type": "Point", "coordinates": [ -73.79759, 45.47145 ] } },
{ "type": "Feature", "properties": { "name": "CE3 Electronics Inc.", "address": "1055 Aviation Avenue, Dieppe, New Brunswick E1A9S5, CANADA" }, "geometry": { "type": "Point", "coordinates": [ -64.68282, 46.12284 ] } },
{ "type": "Feature", "properties": { "name": "CEL Aerospace Test Equipment Ltd. also dba CEL Industrial Inc.", "address": "7150 John-Molson, Saint-Hubert, Quebec J3Y 1R4, CANADA" }, "geometry": { "type": "Point", "coordinates": [ -73.3973, 45.51636 ] } },
{ "type": "Feature", "properties": { "name": "CFN Precision", "address": "1000 Creditstone Road, Concord, Ontario L4K4P8, CANADA" }, "geometry": { "type": "Point", "coordinates": [ -79.52308, 43.81597 ] } },
{ "type": "Feature", "properties": { "name": "CMC Electronics Inc.", "address": "600 Dr Frederik Philips Boulevard, St-Laurent, Quebec H4M2S9, CANADA" }, "geometry": { "type": "Point", "coordinates": [ -73.69297, 45.49538 ] } },
{ "type": "Feature", "properties": { "name": "COM DEV Ltd. (d/b/a Honeywell)", "address": "155 Sheldon Drive, Cambridge, Ontario N1R 7H6, CANADA" }, "geometry": { "type": "Point", "coordinates": [ -80.31207, 43.40261 ] } },
{ "type": "Feature", "properties": { "name": "CS Group - Canada INC", "address": "2300, 400 avenue Sainte Croix, St Laurent (Montréal), Quebec H4N 3L4, CANADA" }, "geometry": { "type": "Point", "coordinates": [ -73.66883, 45.50913 ] } },
{ "type": "Feature", "properties": { "name": "CSM ULC DBA ASA ALLOYS INC.", "address": "81 Steinway Boulevard, Etobicoke, Ontario M9W 6H6, CANADA" }, "geometry": { "type": "Point", "coordinates": [ -79.62422, 43.74951 ] } },
{ "type": "Feature", "properties": { "name": "Cable Lock Connectors Limited", "address": "69 Baywood Rd, Etobicoke, Ontario M9V 3Y8, CANADA" }, "geometry": { "type": "Point", "coordinates": [ -79.60604, 43.74874 ] } },
{ "type": "Feature", "properties": { "name": "Camatech Inc.", "address": "20 Commerce Crescent, Acton, Ontario L7J2X3, CANADA" }, "geometry": { "type": "Point", "coordinates": [ -80.04635, 43.6407 ] } },
{ "type": "Feature", "properties": { "name": "CanRep Inc.", "address": "12900 rue Brault, Mirabel, Quebec J7J 0W4, CANADA" }, "geometry": { "type": "Point", "coordinates": [ -73.92666, 45.69428 ] } },
{ "type": "Feature", "properties": { "name": "Canadian Plastics Group Ltd. (CPG Aerospace)", "address": "265 Pony Drive, Newmarket, Ontario L3Y7B5, CANADA" }, "geometry": { "type": "Point", "coordinates": [ -79.42948, 44.07558 ] } },
{ "type": "Feature", "properties": { "name": "Celestica International LP", "address": "213 Harry Walker Parkway South, Newmarket, Ontario L3Y 8T3, CANADA" }, "geometry": { "type": "Point", "coordinates": [ -79.42062, 44.0617 ] } },
{ "type": "Feature", "properties": { "name": "Centra Industries Inc. Division of PCC Aerostructures", "address": "24 Cherry Blossom Road, Cambridge, Ontario N3H 4R7, CANADA" }, "geometry": { "type": "Point", "coordinates": [ -80.38006, 43.41484 ] } },
{ "type": "Feature", "properties": { "name": "Circuit Tech Inc.", "address": "399 Denison Street, Markham, Ontario L3R1B7, CANADA" }, "geometry": { "type": "Point", "coordinates": [ -79.34708, 43.82218 ] } },
{ "type": "Feature", "properties": { "name": "Cleeve Technology Inc.", "address": "716 Colonel Sam Drive, Oshawa, Ontario L1H 7Y2, CANADA" }, "geometry": { "type": "Point", "coordinates": [ -78.8272, 43.87992 ] } },
{ "type": "Feature", "properties": { "name": "Composites One Canada ULC", "address": "1100 Rue Parent, Suite # 200, Saint-Bruno, Quebec J3V 6L8, CANADA" }, "geometry": { "type": "Point", "coordinates": [ -73.36728, 45.52611 ] } },
{ "type": "Feature", "properties": { "name": "Comtek Advanced Structures Ltd.", "address": "1360 Artisans Court, Burlington, Ontario L7L 5Y2, CANADA" }, "geometry": { "type": "Point", "coordinates": [ -79.78514, 43.38558 ] } },
{ "type": "Feature", "properties": { "name": "Coordinate Industries Ltd.", "address": "2871 Plymouth Dr, Oakville, Ontario L6H 5S5, CANADA" }, "geometry": { "type": "Point", "coordinates": [ -79.67492, 43.51208 ] } },
{ "type": "Feature", "properties": { "name": "Core Avionics & Industrial, Inc.", "address": "80 King St South, Suite 205, Waterloo, Ontario N2J 1P5, CANADA" }, "geometry": { "type": "Point", "coordinates": [ -80.52153, 43.46342 ] } },
{ "type": "Feature", "properties": { "name": "Creation Technologies LTD", "address": "6820 Creditview Road, Mississauga, Ontario L5N 0A9, CANADA" }, "geometry": { "type": "Point", "coordinates": [ -79.73597, 43.61302 ] } },
{ "type": "Feature", "properties": { "name": "Cross & Associates Manufacturing Inc.", "address": "39-B Antares Drive, Ottawa, Ontario K2E 7Z1, CANADA" }, "geometry": { "type": "Point", "coordinates": [ -75.7088, 45.33135 ] } },
{ "type": "Feature", "properties": { "name": "Cyclone Manufacturing Inc", "address": "6811 Century Ave, Mississauga, Ontario L5N7K2, CANADA" }, "geometry": { "type": "Point", "coordinates": [ -79.74609, 43.60306 ] } },
{ "type": "Feature", "properties": { "name": "D N Quality Machining Ltd.", "address": "5158 Everest Drive, Mississauga, Ontario L4W2R4, CANADA" }, "geometry": { "type": "Point", "coordinates": [ -79.63744, 43.62793 ] } },
{ "type": "Feature", "properties": { "name": "D-J Composites, Inc.", "address": "1 CL Dobbin Drive, Gander, Newfoundland and Labrador A1V1W8, CANADA" }, "geometry": { "type": "Point", "coordinates": [ -54.57938, 48.94175 ] } },
{ "type": "Feature", "properties": { "name": "DAHER INDUSTRIAL SERVICES", "address": "Bureau #200, 630 Rue Saint-Paul Ouest , MONTREAL, Quebec H3C 1L9, CANADA" }, "geometry": { "type": "Point", "coordinates": [ -73.55757, 45.49955 ] } },
{ "type": "Feature", "properties": { "name": "DAVWIRE (Defense & Aviation Wiring Inc.)", "address": "1180 Wilton Grove Road, London, Ontario N6N 1C8, CANADA" }, "geometry": { "type": "Point", "coordinates": [ -81.18352, 42.92944 ] } },
{ "type": "Feature", "properties": { "name": "DCM Group Inc", "address": "890 Michèle - Bohec, Blainville,, Quebec J7C 5E2, CANADA" }, "geometry": { "type": "Point", "coordinates": [ -73.88909, 45.66435 ] } },
{ "type": "Feature", "properties": { "name": "DERICHEBOURG AERONAUTICS SERVICES", "address": "9000 Boul Ray Lawson, ANJOU, Quebec H1J 1K8, CANADA" }, "geometry": { "type": "Point", "coordinates": [ -73.56324, 45.6166 ] } },
{ "type": "Feature", "properties": { "name": "DICA Electronics Ltd", "address": "160 Industrial Avenue, Carleton Place, Ontario K7C 3T2, CANADA" }, "geometry": { "type": "Point", "coordinates": [ -76.14763, 45.15239 ] } },
{ "type": "Feature", "properties": { "name": "DICI Industries", "address": "10345 Boulevard Henri-Bourassa, Saint-Laurent, Quebec H4S 1A1, CANADA" }, "geometry": { "type": "Point", "coordinates": [ -73.75644, 45.49423 ] } },
{ "type": "Feature", "properties": { "name": "DRS Technologies Canada Ltd", "address": "Suite 1100, 500 Palladium Drive, Kanata, Ontario K2V 1C2, CANADA" }, "geometry": { "type": "Point", "coordinates": [ -75.91262, 45.29969 ] } },
{ "type": "Feature", "properties": { "name": "DURA Machine Group, Inc. Dyad Industries", "address": "71 Finchdene Sq., Toronto, Ontario M1X 1A7, CANADA" }, "geometry": { "type": "Point", "coordinates": [ -79.23168, 43.81766 ] } },
{ "type": "Feature", "properties": { "name": "Daniel Precision Machining Inc.", "address": "5576 Ambler Drive, Mississauga, Ontario L4W 2K9, CANADA" }, "geometry": { "type": "Point", "coordinates": [ -79.63916, 43.64409 ] } },
{ "type": "Feature", "properties": { "name": "Deburex Aviation Inc.", "address": "80, rue du Parc Industriel, Lanoraie, Quebec J0K1E0, CANADA" }, "geometry": { "type": "Point", "coordinates": [ -73.27389, 45.97531 ] } },
{ "type": "Feature", "properties": { "name": "Delastek Inc.", "address": "14, 2699 5e Avenue, Shawinigan, Quebec G9T 2P7, CANADA" }, "geometry": { "type": "Point", "coordinates": [ -72.70794, 46.59981 ] } },
{ "type": "Feature", "properties": { "name": "Designed Precision Castings Inc.", "address": "75 Eastern Avenue, Brampton, Ontario L6W1X9, CANADA" }, "geometry": { "type": "Point", "coordinates": [ -79.74407, 43.69537 ] } },
{ "type": "Feature", "properties": { "name": "Discovery Precision Machining Inc.", "address": "701 Rowntree Dairy Road, Woodbridge, Ontario L4L5T9, CANADA" }, "geometry": { "type": "Point", "coordinates": [ -79.56769, 43.77806 ] } },
{ "type": "Feature", "properties": { "name": "Dishon Limited", "address": "40 Citation Drive, Vaughan, Ontario L4K2W9, CANADA" }, "geometry": { "type": "Point", "coordinates": [ -79.49047, 43.82425 ] } },
{ "type": "Feature", "properties": { "name": "Diversified Specialty Metals ULC", "address": "20 Hymus Blvd, Pointe Claire, Quebec H9R 1C9, CANADA" }, "geometry": { "type": "Point", "coordinates": [ -73.79101, 45.47523 ] } },
{ "type": "Feature", "properties": { "name": "Dy4 Dba Curtiss-Wright Defense Solutions", "address": "333 Palladium Dr., Ottawa, Ontario K2V 1A6, CANADA" }, "geometry": { "type": "Point", "coordinates": [ -75.90837, 45.29993 ] } },
{ "type": "Feature", "properties": { "name": "E CRAFTSMEN CORPORATION", "address": "73 Schaefer Street, Waterloo, Ontario N2L 4C4, CANADA" }, "geometry": { "type": "Point", "coordinates": [ -80.53315, 43.49095 ] } },
{ "type": "Feature", "properties": { "name": "E-Tronic Aerospace Inc", "address": "797 Chem. Du Sablon, Laval, Quebec H7W 4H5, CANADA" }, "geometry": { "type": "Point", "coordinates": [ -73.76819, 45.53265 ] } },
{ "type": "Feature", "properties": { "name": "E2IP TECHNOLOGIES INC.", "address": "1455, 32nd Avenue, Lachine, Quebec H8T 3J1, CANADA" }, "geometry": { "type": "Point", "coordinates": [ -73.69194, 45.43798 ] } },
{ "type": "Feature", "properties": { "name": "E2SENSE INC.", "address": "111-1405 St-Jean-Baptiste Street, Quebec City, Quebec G2E 5K2, CANADA" }, "geometry": { "type": "Point", "coordinates": [ -71.32881, 46.80127 ] } },
{ "type": "Feature", "properties": { "name": "ELSO Inc", "address": "97  Ave.Guthrie, Dorval, Quebec H9P 2P1, CANADA" }, "geometry": { "type": "Point", "coordinates": [ -73.72573, 45.45242 ] } },
{ "type": "Feature", "properties": { "name": "EM Dynamics", "address": "170 Commander Blvd, Scarborough, Ontario M1S 3C8, CANADA" }, "geometry": { "type": "Point", "coordinates": [ -79.26833, 43.79656 ] } },
{ "type": "Feature", "properties": { "name": "EMS Technologies Canada, Ltd.", "address": "400 Maple Grove Road, Ottawa, Ontario K2V1B8, CANADA" }, "geometry": { "type": "Point", "coordinates": [ -75.90743, 45.29802 ] } },
{ "type": "Feature", "properties": { "name": "ETM INDUSTRIES INC.", "address": "310 Hall Avenue, Renfrew, Ontario K7V 4E7, CANADA" }, "geometry": { "type": "Point", "coordinates": [ -76.67478, 45.47323 ] } },
{ "type": "Feature", "properties": { "name": "EXPLEO Canada Inc.", "address": "Bureau 360, 101 Marcel-Laurin, Québec, Ville Saint-Laurent, Quebec H4N 2M3, CANADA" }, "geometry": { "type": "Point", "coordinates": [ -73.67091, 45.50379 ] } },
{ "type": "Feature", "properties": { "name": "Earle M. Jorgensen, a division of Reliance Metals Canada Limited", "address": "1451 Rue Louis-Blériot, Mascouche, Quebec J7K 3C1, CANADA" }, "geometry": { "type": "Point", "coordinates": [ -73.59828, 45.71931 ] } },
{ "type": "Feature", "properties": { "name": "Elasto Proxy Inc", "address": "4035 Lavoisier, Boisbriand, Quebec J7H 1N1, CANADA" }, "geometry": { "type": "Point", "coordinates": [ -73.86894, 45.6311 ] } },
{ "type": "Feature", "properties": { "name": "Electroless Nickel Technologies Ltd", "address": "36 Taber Rd, Toronto, Ontario M9W 3A8, CANADA" }, "geometry": { "type": "Point", "coordinates": [ -79.57635, 43.71878 ] } },
{ "type": "Feature", "properties": { "name": "Elimetal Inc.", "address": "1515 Pitfield, St. Laurent, Quebec H4S1G3, CANADA" }, "geometry": { "type": "Point", "coordinates": [ -73.72916, 45.48675 ] } },
{ "type": "Feature", "properties": { "name": "Ellsworth Adhesives", "address": "560 Arvin Road  Unit #5, Stoney Creek, Ontario ., CANADA" }, "geometry": { "type": "Point", "coordinates": [ -79.70579, 43.22653 ] } },
{ "type": "Feature", "properties": { "name": "English Plastics Inc.", "address": "1645 Finfar Court, Mississauga, Ontario L5J 4K1, CANADA" }, "geometry": { "type": "Point", "coordinates": [ -79.65197, 43.51752 ] } },
{ "type": "Feature", "properties": { "name": "Erin Mills Machine and Tool Works", "address": "17 Brownridge Road Unit 3, Halton Hills, Ontario L7G 0C6, CANADA" }, "geometry": { "type": "Point", "coordinates": [ -79.86017, 43.54999 ] } },
{ "type": "Feature", "properties": { "name": "Euro Precision Inc.", "address": "19877 Clark-Graham Ave, Baie D'Urfe, Quebec H9X 3T1, CANADA" }, "geometry": { "type": "Point", "coordinates": [ -73.91559, 45.42298 ] } },
{ "type": "Feature", "properties": { "name": "Exactatherm Ltd.", "address": "2381 Anson Drive, Mississauga, Ontario L5S1G1, CANADA" }, "geometry": { "type": "Point", "coordinates": [ -79.66073, 43.69546 ] } },
{ "type": "Feature", "properties": { "name": "Expertises UberSpec Inc", "address": "17999 J.A. Bombardier Locale G, Mirabel, Quebec J7J 2H8, CANADA" }, "geometry": { "type": "Point", "coordinates": [ -73.92659, 45.68702 ] } },
{ "type": "Feature", "properties": { "name": "F. List Canada Corp.", "address": "Boulevard des Rossignols, Laval, Quebec H7L 5S7, CANADA" }, "geometry": { "type": "Point", "coordinates": [ -73.76885, 45.58593 ] } },
{ "type": "Feature", "properties": { "name": "FDC Composites Inc.", "address": "45, chemin de L'Aéroport (H2), Unit 26, St-Jean-sur-Richelieu, Quebec J3B7B5, CANADA" }, "geometry": { "type": "Point", "coordinates": [ -73.28125, 45.29834 ] } },
{ "type": "Feature", "properties": { "name": "FELLFAB Limited", "address": "2343 Barton Street East, Hamilton, Ontario L8E 5V8, CANADA" }, "geometry": { "type": "Point", "coordinates": [ -79.76638, 43.23886 ] } },
{ "type": "Feature", "properties": { "name": "FLEET CANADA INC.", "address": "1011 Gilmore Road, Fort Erie, Ontario L2A5N3, CANADA" }, "geometry": { "type": "Point", "coordinates": [ -78.9539, 42.91853 ] } },
{ "type": "Feature", "properties": { "name": "FORMULA SOLUTIONS INC.", "address": "1550 Appleby Line, Burlington, Ontario L7L 6V1, CANADA" }, "geometry": { "type": "Point", "coordinates": [ -79.78401, 43.38829 ] } },
{ "type": "Feature", "properties": { "name": "FTG AEROSPACE", "address": "10 Commander Blvd., Toronto, Ontario M1S 3T2, CANADA" }, "geometry": { "type": "Point", "coordinates": [ -79.26233, 43.79655 ] } },
{ "type": "Feature", "properties": { "name": "Fabricaire", "address": "530-1 des Erables, Valleyfield, Quebec J6T 6G4, CANADA" }, "geometry": { "type": "Point", "coordinates": [ -74.12337, 45.25671 ] } },
{ "type": "Feature", "properties": { "name": "Farsound Aviation Inc.", "address": "Units 10 - 12, 6260 HWY 7, Woodbridge, Ontario L4H 4G3, CANADA" }, "geometry": { "type": "Point", "coordinates": [ -79.62499, 43.7759 ] } },
{ "type": "Feature", "properties": { "name": "Fibrotek Advanced Materials", "address": "19 rue des Étangs, Clermont, Quebec G4A 1B7, CANADA" }, "geometry": { "type": "Point", "coordinates": [ -70.20887, 47.68953 ] } },
{ "type": "Feature", "properties": { "name": "Field Aviation Company Inc.", "address": "1060-A Lorimar Drive, Mississauga, Ontario L5S 1R8, CANADA" }, "geometry": { "type": "Point", "coordinates": [ -79.68441, 43.66796 ] } },
{ "type": "Feature", "properties": { "name": "Flight Test Centre of Excellence Inc.", "address": "50 Rabastalière est, Suite 23, St-Bruno-de-Montarville, Quebec J3V 2A5, CANADA" }, "geometry": { "type": "Point", "coordinates": [ -73.34101, 45.52812 ] } },
{ "type": "Feature", "properties": { "name": "Flying Colours Corp.", "address": "901 Airport Road, Unit 120, Peterborough, Ontario K9J 6X6, CANADA" }, "geometry": { "type": "Point", "coordinates": [ -78.36487, 44.26048 ] } },
{ "type": "Feature", "properties": { "name": "Free Force Machining Technology Inc.", "address": "320 Vansickle Road Unit #11, St. Catharines, Ontario L2S0B4, CANADA" }, "geometry": { "type": "Point", "coordinates": [ -79.26973, 43.1448 ] } },
{ "type": "Feature", "properties": { "name": "Freudenberg-NOK Sealing Technologies", "address": "65 Spruce Street, Tillsonburg, Ontario N4G5C4, CANADA" }, "geometry": { "type": "Point", "coordinates": [ -80.71531, 42.85072 ] } },
{ "type": "Feature", "properties": { "name": "Fusia Groupe", "address": "180 boulevard Industriel, Sainte-Eustache, Quebec J7R 5C2, CANADA" }, "geometry": { "type": "Point", "coordinates": [ -73.92305, 45.56827 ] } },
{ "type": "Feature", "properties": { "name": "Future Electronics Worldwide Corporate Headquarters", "address": "237 Hymus Boulevard, Pointe Claire, Quebec H9R 5C7, CANADA" }, "geometry": { "type": "Point", "coordinates": [ -73.82544, 45.45933 ] } },
{ "type": "Feature", "properties": { "name": "G.M. Précision Inc.", "address": "721-E Grand Bernier Nord, Saint-Jean-sur-Richelieu, Quebec J3B 8H6, CANADA" }, "geometry": { "type": "Point", "coordinates": [ -73.29622, 45.32372 ] } },
{ "type": "Feature", "properties": { "name": "GAL Aviation Inc.", "address": "264 Adrien Patenaude, Vaudreuil, Quebec J7V 5V5, CANADA" }, "geometry": { "type": "Point", "coordinates": [ -74.04812, 45.40584 ] } },
{ "type": "Feature", "properties": { "name": "GDC Aerospace Canada Inc.", "address": "Suite 400 - Pointe Claire, 6500 Trans Canada Hwy, Quebec, Quebec H9R0A5, CANADA" }, "geometry": { "type": "Point", "coordinates": [ -73.82334, 45.46377 ] } },
{ "type": "Feature", "properties": { "name": "GEC Aviation Inc.", "address": "2 Boulevard de L'aeroport, Bromont, Quebec J2L 1S6, CANADA" }, "geometry": { "type": "Point", "coordinates": [ -72.70581, 45.30235 ] } },
{ "type": "Feature", "properties": { "name": "GSNETWORKS INC.", "address": "360 Terry Fox Drive, Kanata, Ontario K2K 2P5, CANADA" }, "geometry": { "type": "Point", "coordinates": [ -75.92021, 45.35108 ] } },
{ "type": "Feature", "properties": { "name": "GarDel Metal Products", "address": "140 West Beaver Creek Rd., Richmond Hill, Ontario L4B 1C2, CANADA" }, "geometry": { "type": "Point", "coordinates": [ -79.39081, 43.84955 ] } },
{ "type": "Feature", "properties": { "name": "Garrtech Inc.", "address": "910 Arvin Avenue., Stoney Creek, Ontario L8E 5Y8, CANADA" }, "geometry": { "type": "Point", "coordinates": [ -79.67593, 43.219 ] } },
{ "type": "Feature", "properties": { "name": "GasTOPS", "address": "1011 Polytek Street, Ottawa, Ontario K1J 9J3, CANADA" }, "geometry": { "type": "Point", "coordinates": [ -75.58472, 45.45689 ] } },
{ "type": "Feature", "properties": { "name": "Gem Craft Chemical Limited", "address": "15 Walker Road, Virgil, Ontario L0S 1J0, CANADA" }, "geometry": { "type": "Point", "coordinates": [ -79.1284, 43.21519 ] } },
{ "type": "Feature", "properties": { "name": "General Dynamics Mission Systems - Canada", "address": "1941 Robertson Road, Ottawa, Ontario K2H5B7, CANADA" }, "geometry": { "type": "Point", "coordinates": [ -75.82422, 45.32592 ] } },
{ "type": "Feature", "properties": { "name": "Global Partner Solutions Inc.", "address": "1675 Rte Transcanadienne Suite, Dorval, Quebec H9P 1J1, CANADA" }, "geometry": { "type": "Point", "coordinates": [ -73.77994, 45.48753 ] } },
{ "type": "Feature", "properties": { "name": "Goodrich Aerospace Canada Ltd.", "address": "13100 Henri-Fabre Boulevard, Mirabel, Quebec J7N 3C6, CANADA" }, "geometry": { "type": "Point", "coordinates": [ -74.02127, 45.68636 ] } },
{ "type": "Feature", "properties": { "name": "Groupe Lev-Fab inc.", "address": "640, boul. Monseigneur Dubois, St-Jérôme, Quebec J7Y 3L8, CANADA" }, "geometry": { "type": "Point", "coordinates": [ -74.01915, 45.78697 ] } },
{ "type": "Feature", "properties": { "name": "HPG LP.", "address": "29 Brownridge Rd. , Georgetown, Ontario L7G 0C6, CANADA" }, "geometry": { "type": "Point", "coordinates": [ -79.85881, 43.54916 ] } },
{ "type": "Feature", "properties": { "name": "Heligear Canada Acquisition Corporation d/b/a Northstar Aerospace (Windsor)", "address": "204 East Pike Creek Road, Tecumseh, Ontario N8N2L9, CANADA" }, "geometry": { "type": "Point", "coordinates": [ -82.84101, 42.3036 ] } },
{ "type": "Feature", "properties": { "name": "Heroux Devtek", "address": "47 heroux-Devtek Drive, Cambridge, Ontario N3E 0A7, CANADA" }, "geometry": { "type": "Point", "coordinates": [ -80.36088, 43.4257 ] } },
{ "type": "Feature", "properties": { "name": "Hess Aerospace and Defense Ltd./Hess Aérospatiale et Défense Ltée", "address": "801 Chemin Kenney/William, Hemmingford, Quebec J0L 1H0, CANADA" }, "geometry": { "type": "Point", "coordinates": [ -73.52806, 45.07241 ] } },
{ "type": "Feature", "properties": { "name": "Hutchinson Aerospace & Industry Limited", "address": "3650 Boul du Tricentenaire, Montreal, Quebec H1B5M8, CANADA" }, "geometry": { "type": "Point", "coordinates": [ -73.51606, 45.65304 ] } },
{ "type": "Feature", "properties": { "name": "Hypercoat-Downing Ltd.", "address": "3750B Laird Road, Unit 6, Mississauga, Ontario L5L 0A6, CANADA" }, "geometry": { "type": "Point", "coordinates": [ -79.70976, 43.52133 ] } },
{ "type": "Feature", "properties": { "name": "Hypernetics", "address": "10 Didak Drive, Arnprior, Ontario K7S 0C3, CANADA" }, "geometry": { "type": "Point", "coordinates": [ -76.33502, 45.4242 ] } },
{ "type": "Feature", "properties": { "name": "I&L Precision Inc.", "address": "665 Tradewind Dr. (Unit 6 & 7), Ancaster, Ontario L9G 4V5, CANADA" }, "geometry": { "type": "Point", "coordinates": [ -80.02891, 43.18869 ] } },
{ "type": "Feature", "properties": { "name": "IMP Aerospace, a Division of I.M.P. Group Limited", "address": "579 Barnes Road, Enfield, Nova Scotia B2T 1L5, CANADA" }, "geometry": { "type": "Point", "coordinates": [ -63.53515, 44.93918 ] } },
{ "type": "Feature", "properties": { "name": "INGENIO Aerospace Inc.", "address": "Suite 102, 1350 rue Mazurette, Montreal, Quebec H4N 1H2, CANADA" }, "geometry": { "type": "Point", "coordinates": [ -73.65925, 45.5324 ] } },
{ "type": "Feature", "properties": { "name": "INTERCONNECTION LATELEC INC", "address": "4920 Rue Louis-B.-MAYER, Laval, Quebec H7P 0H7, CANADA" }, "geometry": { "type": "Point", "coordinates": [ -73.79395, 45.56214 ] } },
{ "type": "Feature", "properties": { "name": "ITS Electronics, Inc.", "address": "Unit B, 3280 Langstaff Road,, Vaughan, Ontario L4K5B6, CANADA" }, "geometry": { "type": "Point", "coordinates": [ -79.53598, 43.81159 ] } },
{ "type": "Feature", "properties": { "name": "Instrumar Ltd.", "address": "39 Pippy Place, St. John's, Newfoundland and Labrador A1B 3X2, CANADA" }, "geometry": { "type": "Point", "coordinates": [ -52.77104, 47.55962 ] } },
{ "type": "Feature", "properties": { "name": "Integran Technologies, Inc.", "address": "6300 Northam Drive, Mississauga, Ontario L4V1H7, CANADA" }, "geometry": { "type": "Point", "coordinates": [ -79.61745, 43.69537 ] } },
{ "type": "Feature", "properties": { "name": "Integrated Technology Limited (DBA Summit Interconnect Toronto)", "address": "101 Don Park Road, Markham, Ontario L3R 1C4, CANADA" }, "geometry": { "type": "Point", "coordinates": [ -79.34833, 43.82379 ] } },
{ "type": "Feature", "properties": { "name": "J-Squared Technologies Inc.", "address": "4015 Carling Avenue Suite 101, Kanata, Ontario K2K 2A3, CANADA" }, "geometry": { "type": "Point", "coordinates": [ -75.89997, 45.33923 ] } },
{ "type": "Feature", "properties": { "name": "Jesse Garant Metrology Center", "address": "1219 Walker Road, Windsor, Ontario N8Y 2N9, CANADA" }, "geometry": { "type": "Point", "coordinates": [ -83.00305, 42.31491 ] } },
{ "type": "Feature", "properties": { "name": "K2 AERO SERVICES", "address": "6469 Netherhart Rd.  , Mississauga, Ontario L5T 1C3, CANADA" }, "geometry": { "type": "Point", "coordinates": [ -79.64764, 43.67198 ] } },
{ "type": "Feature", "properties": { "name": "KPT Precision Inc.", "address": "217 Unit C Queen's Plate Drive, Rexdale, Ontario M9W 6Z7, CANADA" }, "geometry": { "type": "Point", "coordinates": [ -79.59368, 43.72075 ] } },
{ "type": "Feature", "properties": { "name": "Kennametal Stellite Inc.", "address": "471 Dundas Street East, Belleville, Ontario K8N1G2, CANADA" }, "geometry": { "type": "Point", "coordinates": [ -77.35227, 44.16635 ] } },
{ "type": "Feature", "properties": { "name": "Kimtronics Inc", "address": "16763 Hymus Blvd, Kirkland, Quebec H9H 3L4, CANADA" }, "geometry": { "type": "Point", "coordinates": [ -73.84686, 45.4507 ] } },
{ "type": "Feature", "properties": { "name": "Kontron Canada Inc.", "address": "4555 rue Ambroise-Lafortune, Boisbriand, Quebec J7H 0A4, CANADA" }, "geometry": { "type": "Point", "coordinates": [ -73.86546, 45.64126 ] } },
{ "type": "Feature", "properties": { "name": "Koss Aerospace", "address": "199 Wilkinson Road, Brampton, Ontario L6T 4M2, CANADA" }, "geometry": { "type": "Point", "coordinates": [ -79.69667, 43.68904 ] } },
{ "type": "Feature", "properties": { "name": "Krayden Canada", "address": "#12-13, 2430 Lucknow Drive, Mississauga, Ontario L5S-1V3, CANADA" }, "geometry": { "type": "Point", "coordinates": [ -79.65556, 43.69377 ] } },
{ "type": "Feature", "properties": { "name": "L 3 Wescam", "address": "17 Prince Andrew Place, Toronto, Ontario, CANADA" }, "geometry": { "type": "Point", "coordinates": [ -79.3433, 43.72501 ] } },
{ "type": "Feature", "properties": { "name": "L3HARRIS MAS INC.", "address": "10000 Helen-Bristol, Mirabel, Quebec J7N 1H3, CANADA" }, "geometry": { "type": "Point", "coordinates": [ -74.08267, 45.67672 ] } },
{ "type": "Feature", "properties": { "name": "LATESYS CANADA", "address": "3605 Rue Isabelle, BROSSARD, Quebec J4Y-2R2, CANADA" }, "geometry": { "type": "Point", "coordinates": [ -73.46577, 45.42934 ] } },
{ "type": "Feature", "properties": { "name": "LETAR INC.", "address": "Unit A, 40 Courtland Avenue, Concord, Ontario L4K 5B3, CANADA" }, "geometry": { "type": "Point", "coordinates": [ -79.53117, 43.81527 ] } },
{ "type": "Feature", "properties": { "name": "LHM Technologies Inc.", "address": "446 Rowntree Dairy Road, Woodbridge, Ontario L4L8H2, CANADA" }, "geometry": { "type": "Point", "coordinates": [ -79.55845, 43.77986 ] } },
{ "type": "Feature", "properties": { "name": "LP Custom Machining Ltd.", "address": "211 Barton Street East, Stoney Creek, Ontario L8E 2K3, CANADA" }, "geometry": { "type": "Point", "coordinates": [ -79.85684, 43.26208 ] } },
{ "type": "Feature", "properties": { "name": "Lauak Canada Inc.", "address": "10200 Irénée-Vachon Street, Mirabel, Quebec J7N 3E3, CANADA" }, "geometry": { "type": "Point", "coordinates": [ -74.07836, 45.68082 ] } },
{ "type": "Feature", "properties": { "name": "Les Industries Lavod, Inc.", "address": "2903, Bergman, Laval, Quebec H7L 3Y5, CANADA" }, "geometry": { "type": "Point", "coordinates": [ -73.74556, 45.58455 ] } },
{ "type": "Feature", "properties": { "name": "Libellule Monde", "address": "765, rue Nobel, Suite 105, Saint-Jérôme, Quebec J7Z 7A3, CANADA" }, "geometry": { "type": "Point", "coordinates": [ -73.99225, 45.75689 ] } },
{ "type": "Feature", "properties": { "name": "Liburdi Engineering Ltd. & Liburdi Turbine Services Inc", "address": "400 Highway 6 North, Dundas, Ontario L9H 7K4, CANADA" }, "geometry": { "type": "Point", "coordinates": [ -79.9124, 43.30989 ] } },